{
  "businesses": [{
    "name": "רנסנס",
    "businessType": "lodging",
    "address" : {
      "city": "תל אביב יפו",
      "street": "הירקון",
      "homeNumber": "121",
      "coordinates": {
        "lat": 32.07748,
        "lng": 34.785817
      }
    },
    "phone": "03-521-5555",
    "website": "http://www.marriott.com/hotels/travel/tlvbr-renaissance-tel-aviv-hotel/"
  }, {
    "name": "מוזיאון תל אביב לאומנות",
    "businessType": "museum",
    "address" : {
      "city": "תל אביב יפו",
      "street": "שדרות שאול המלך",
      "homeNumber": "27",
      "coordinates": {
        "lat": 32.07748,
        "lng": 34.785817
      }
    },
    "phone": "03-607-7020",
    "website": "http://www.tamuseum.org.il/he/default.aspx"
  }, {
    "name": "מלון דן פנורמה",
    "businessType": "lodging",
    "address" : {
      "city": "תל אביב יפו",
      "street": "פרופסור יחזקאל קויפמן",
      "homeNumber": "10",
      "coordinates": {
        "lat": 32.064909,
        "lng": 34.762963
      }
    },
    "phone": "03-520-2552",
    "website": "http://www.danhotels.com/TelAvivHotels/DanPanoramaTelAvivHotel/"
  }, {
    "name": "מלון דן",
    "businessType": "lodging",
    "address" : {
      "city": "תל אביב יפו",
      "street": "הירקון",
      "homeNumber": "99",
      "coordinates": {
        "lat": 32.079573,
        "lng": 34.767688
      }
    },
    "phone": "03-520-2525",
    "website": "http://www.danhotels.com/TelAvivHotels/DanTelAvivHotel"
  }, {
    "name": "מלון שרתון תל אביב",
    "businessType": "lodging",
    "address" : {
      "city": "תל אביב יפו",
      "street": "הירקון",
      "homeNumber": "115",
      "coordinates": {
        "lat": 32.081478,
        "lng": 34.768076
      }
    },
    "phone": "03-521-1111",
    "website": "http://www.sheratontelaviv.com/he"
  }, {
    "name": "מלון סינמה תל אביב",
    "businessType": "lodging",
    "address" : {
      "city": "תל אביב יפו",
      "street": "זמנהוף",
      "homeNumber": "1",
      "coordinates": {
        "lat": 32.07814,
        "lng": 34.774843
      }
    },
    "phone": "03-520-7100",
    "website": "http://www.atlas.co.il/Heb/%D7%9E%D7%9C%D7%95%D7%9F-%D7%A1%D7%99%D7%A0%D7%9E%D7%94"
  }, {
    "name": "מלון דיויד אינטרקונטיננטל",
    "businessType": "lodging",
    "address" : {
      "city": "תל אביב יפו",
      "street": "קאופמן",
      "homeNumber": "12",
      "coordinates": {
        "lat": 32.065442,
        "lng": 34.76351
      }
    },
    "phone": "03-795-1111",
    "website": "http://www.intercontinental.com/telaviv?cm_mmc=GoogleMaps-_-ic-_-ILEN-_-tlvha"
  }, {
    "name": "מלון קראון פלזה סיטי סנטר תל אביב",
    "businessType": "lodging",
    "address" : {
      "city": "תל אביב יפו",
      "street": "מנחם בגין",
      "homeNumber": "136",
      "coordinates": {
        "lat": 32.074557,
        "lng": 34.792277
      }
    },
    "phone": "03-777-4000",
    "website": "http://www.h-i.co.il/hotels/crowne-plaza-tel-aviv-city-center/"
  }, {
    "name": "היכל הספורט יד אליהו",
    "businessType": "establishment",
    "address" : {
      "city": "תל אביב יפו",
      "street": "יגאל אלון",
      "homeNumber": "51",
      "coordinates": {
        "lat": 32.061116,
        "lng": 34.791322
      }
    },
    "phone": "03-537-6376"
  }, {
    "name": "מרינה תל אביב",
    "businessType": "lodging",
    "address" : {
      "city": "תל אביב יפו",
      "street": "הירקון",
      "homeNumber": "167",
      "coordinates": {
        "lat": 32.085653,
        "lng": 34.770234
      }
    },
    "phone": "03-521-1777",
    "website": "http://www.marina-telaviv.co.il/"
  }, {
    "name": "חומוס הכרמל",
    "businessType": "food",
    "address" : {
      "city": "תל אביב יפו",
      "street": "הכרמל",
      "homeNumber": "11",
      "coordinates": {
        "lat": 32.068043,
        "lng": 34.768116
      }
    },
    "phone": "050-862-4635"
  }, {
    "name": "פארק פלאזה אורכידיאה",
    "businessType": "restaurant",
    "address" : {
      "city": "תל אביב יפו",
      "street": "הירקון",
      "homeNumber": "79",
      "coordinates": {
        "lat": 32.077397,
        "lng": 34.766726
      }
    },
    "phone": "03-519-7111",
    "website": "http://www.parkplaza.com/tel-aviv-hotel-il-63432/isrtelav"
  }, {
    "name": "מלון ויטל ביזנס בוטיק הוטל",
    "businessType": "lodging",
    "address" : {
      "city": "תל אביב יפו",
      "street": "וייצמן",
      "homeNumber": "14",
      "coordinates": {
        "lat": 32.082193,
        "lng": 34.788915
      }
    },
    "phone": "03-777-0000",
    "website": "http://vitalhotel.co.il/"
  }, {
    "name": "הבימה",
    "businessType": "establishment",
    "address" : {
      "city": "תל אביב יפו",
      "street": "שדרות תרסט",
      "homeNumber": "2",
      "coordinates": {
        "lat": 32.072737,
        "lng": 34.779007
      }
    },
    "phone": "03-526-6666",
    "website": "http://www.habima.co.il/"
  }, {
    "name": "מלון דבורה",
    "businessType": "lodging",
    "address" : {
      "city": "תל אביב יפו",
      "street": "בן יהודה",
      "homeNumber": "87",
      "coordinates": {
        "lat": 32.08257,
        "lng": 34.771127
      }
    },
    "phone": "03-527-8282",
    "website": "http://english.arcadiahotels.co.il/deborah-hotel"
  }, {
    "name": "סופר פארם דיזנגוף",
    "businessType": "pharmacy",
    "address" : {
      "city": "תל אביב יפו",
      "street": "דיזנגוף",
      "homeNumber": "50",
      "coordinates": {
        "lat": 32.075352,
        "lng": 34.774754
      }
    },
    "phone": "077-888-0170",
    "website": "http://www.super-pharm.co.il/heb/HomePage/"
  }, {
    "name": "מוזאון העיצוב חולון",
    "businessType": "museum",
    "address" : {
      "city": "חולון",
      "street": "דיזנגוף",
      "homeNumber": "50",
      "coordinates": {
        "lat": 32.010963,
        "lng": 34.777586
      }
    },
    "phone": "073-215-1515",
    "website": "http://www.dmh.org.il/heb/"
  }, {
    "name": "המשכן לאמנויות הבמה",
    "businessType": "establishment",
    "address" : {
      "city": "תל אביב יפו",
      "street": "שדרות שאול המלך",
      "homeNumber": "19",
      "coordinates": {
        "lat": 32.075853,
        "lng": 34.785163
      }
    },
    "phone": "03-692-7777",
    "website": "http://www.israel-opera.co.il/"
  }, {
    "name": "מלון מטרופוליטן",
    "businessType": "lodging",
    "address" : {
      "city": "תל אביב יפו",
      "street": "טרומפלדור",
      "homeNumber": "11",
      "coordinates": {
        "lat": 32.075672,
        "lng": 34.767479
      }
    },
    "phone": "03-519-2727",
    "website": "http://www.hotelmetropolitan.co.il/"
  }, {
    "name": "קרלטון תל אביב",
    "businessType": "lodging",
    "address" : {
      "city": "תל אביב יפו",
      "street": "אליעזר פרי",
      "homeNumber": "10",
      "coordinates": {
        "lat": 32.086522,
        "lng": 34.769591
      }
    },
    "phone": "03-520-1818",
    "website": "http://www.carlton.co.il/he/"
  }]
}