{
  "businesses": [
    {
      "name": "מלון גילגל",
      "businessType": "lodging",
      "phone": "03-511-1000",
      "website": "http://www.hotelgilgal.co.il/",
      "address": {
        "city": "תל אביב יפו",
        "street": "",
        "homeNumber": "",
        "coordinates": [
          34.767303,
          32.074833
        ]
      }
    },
    {
      "name": "מנעולן 24/7 - מנעולן תל אביב",
      "businessType": "locksmith",
      "phone": "03-510-7272",
      "website": "http://www.locksmith247.co.il/",
      "address": {
        "city": "תל אביב יפו",
        "street": "אילת",
        "homeNumber": "27",
        "coordinates": [
          34.76339,
          32.0578
        ]
      }
    },
    {
      "name": "מלון רימונים אופטימה רמת גן",
      "businessType": "lodging",
      "phone": "03-675-4444",
      "website": "http://www.rimonim.com/%D7%A8%D7%99%D7%9E%D7%95%D7%A0%D7%99%D7%9D-%D7%90%D7%95%D7%A4%D7%98%D7%99%D7%9E%D7%94-%D7%A8%D7%9E%D7%AA-%D7%92%D7%9F",
      "address": {
        "city": "רמת גן",
        "street": "קריניצי",
        "homeNumber": "1",
        "coordinates": [
          34.81502,
          32.079277
        ]
      }
    },
    {
      "name": "פארק פלאזה אורכידיאה",
      "businessType": "restaurant",
      "phone": "03-519-7111",
      "website": "http://www.parkplaza.com/tel-aviv-hotel-il-63432/isrtelav",
      "address": {
        "city": "",
        "street": "הירקון",
        "homeNumber": "79",
        "coordinates": [
          34.766727,
          32.077396
        ]
      }
    },
    {
      "name": "מנעולן בכפר סבא",
      "businessType": "locksmith",
      "phone": "055-228-8409",
      "website": "http://locksmith.org.il/",
      "address": {
        "city": "כפר סבא",
        "street": "הכרמל",
        "homeNumber": "25",
        "coordinates": [
          34.907772,
          32.178486
        ]
      }
    },
    {
      "name": "Mor Than Design עיצוב פנים",
      "businessType": "home_goods_store",
      "phone": "052-896-4891",
      "website": "http://www.morthandesign.com/",
      "address": {
        "city": "תל אביב יפו",
        "street": "זטורי",
        "homeNumber": "3",
        "coordinates": [
          34.794315,
          32.09218
        ]
      }
    },
    {
      "name": "כיכר דיזנגוף",
      "businessType": "gas_station",
      "phone": "03-524-1151",
      "website": "",
      "address": {
        "city": "תל אביב יפו",
        "street": "",
        "homeNumber": "",
        "coordinates": [
          34.77419,
          32.07802
        ]
      }
    },
    {
      "name": "זוהו",
      "businessType": "food",
      "phone": "072-249-5497",
      "website": "http://www.cafexoho.com/",
      "address": {
        "city": "תל אביב יפו",
        "street": "",
        "homeNumber": "",
        "coordinates": [
          34.770454,
          32.080498
        ]
      }
    },
    {
      "name": "שילב - בני ברק",
      "businessType": "gas_station",
      "phone": "03-578-3388",
      "website": "http://www.shilav.co.il/stores/branch/Bet-Shilav",
      "address": {
        "city": "בני ברק",
        "street": "",
        "homeNumber": "",
        "coordinates": [
          34.838493,
          32.09034
        ]
      }
    },
    {
      "name": "PINK HOUSE TLV",
      "businessType": "lodging",
      "phone": "054-233-0932",
      "website": "http://www.pinkhousetlv.com/",
      "address": {
        "city": "",
        "street": "רבן גמליאל",
        "homeNumber": "17",
        "coordinates": [
          34.768974,
          32.069702
        ]
      }
    },
    {
      "name": "אירועים אטרקציות חתונה צייר קריקטוריסט יוגה צחוק הפעלות סטנדאפ חתונה בר מצווה",
      "businessType": "health",
      "phone": "054-596-9426",
      "website": "http://h4uh.com/",
      "address": {
        "city": "תל אביב יפו",
        "street": "דיזנגוף",
        "homeNumber": "",
        "coordinates": [
          34.774563,
          32.085835
        ]
      }
    },
    {
      "name": "Mania Jeans",
      "businessType": "clothing_store",
      "phone": "09-891-7371",
      "website": "",
      "address": {
        "city": "הרצליה",
        "street": "שדרות שבעת הכוכבים",
        "homeNumber": "8",
        "coordinates": [
          34.82384,
          32.165176
        ]
      }
    },
    {
      "name": "בנק אגוד",
      "businessType": "bank",
      "phone": "1599-599092",
      "website": "http://www.unionbank.co.il/309-614-he/UnionBank.aspx#branches_details",
      "address": {
        "city": "חדרה",
        "street": "הרצל",
        "homeNumber": "18",
        "coordinates": [
          34.91921,
          32.436897
        ]
      }
    },
    {
      "name": "מנעולן בהוד השרון",
      "businessType": "locksmith",
      "phone": "072-259-1860",
      "website": "",
      "address": {
        "city": "הוד השרון",
        "street": "הבנים",
        "homeNumber": "12",
        "coordinates": [
          34.8923,
          32.155945
        ]
      }
    },
    {
      "name": "מלון ג'רוזלם אין",
      "businessType": "lodging",
      "phone": "02-625-2757",
      "website": "http://www.jerusaleminn.co.il/",
      "address": {
        "city": "ירושלים",
        "street": "יוחנן הורקנוס",
        "homeNumber": "7",
        "coordinates": [
          35.220837,
          31.782455
        ]
      }
    },
    {
      "name": "ספורט דיפו",
      "businessType": "shoe_store",
      "phone": "03-904-8254",
      "website": "http://www.sportdepot.co.il/",
      "address": {
        "city": "פתח תקווה",
        "street": "",
        "homeNumber": "",
        "coordinates": [
          34.901424,
          32.113785
        ]
      }
    },
    {
      "name": "אוונגרד - הרצליה",
      "businessType": "restaurant",
      "phone": "09-972-6188",
      "website": "",
      "address": {
        "city": "הרצליה",
        "street": "שדרות אבא אבן",
        "homeNumber": "10",
        "coordinates": [
          34.80873,
          32.16182
        ]
      }
    },
    {
      "name": "שפיר מנעולים",
      "businessType": "locksmith",
      "phone": "09-950-5564",
      "website": "http://www.shafirlocks.co.il/",
      "address": {
        "city": "הרצליה",
        "street": "סוקולוב",
        "homeNumber": "40",
        "coordinates": [
          34.84485,
          32.167072
        ]
      }
    },
    {
      "name": "MICHATRONIX",
      "businessType": "night_club",
      "phone": "03-603-4005",
      "website": "",
      "address": {
        "city": "",
        "street": "בן יהודה",
        "homeNumber": "28",
        "coordinates": [
          34.76818,
          32.07588
        ]
      }
    },
    {
      "name": "חנות קרוקס - קניון עזריאלי",
      "businessType": "establishment",
      "phone": "03-621-3633",
      "website": "http://www.crocs.co.il/",
      "address": {
        "city": "תל אביב יפו",
        "street": "דרך מנחם בגין",
        "homeNumber": "132",
        "coordinates": [
          34.79182,
          32.076107
        ]
      }
    },
    {
      "name": "Sea Hotel In Tel Aviv",
      "businessType": "establishment",
      "phone": "03-795-3434",
      "website": "http://www.sea-hotel.co.il/",
      "address": {
        "city": "תל אביב יפו",
        "street": "טרומפלדור",
        "homeNumber": "1",
        "coordinates": [
          34.76597,
          32.075405
        ]
      }
    },
    {
      "name": "itraveljerusalem",
      "businessType": "travel_agency",
      "phone": "074-702-0564",
      "website": "http://www.itraveljerusalem.com/",
      "address": {
        "city": "ירושלים",
        "street": "",
        "homeNumber": "",
        "coordinates": [
          35.194,
          31.785135
        ]
      }
    },
    {
      "name": "ויליאמס",
      "businessType": "restaurant",
      "phone": "077-300-6095",
      "website": "",
      "address": {
        "city": "הרצליה",
        "street": "סוקולוב",
        "homeNumber": "6",
        "coordinates": [
          34.83933,
          32.16683
        ]
      }
    },
    {
      "name": "אמפוריום",
      "businessType": "clothing_store",
      "phone": "09-957-4971",
      "website": "",
      "address": {
        "city": "הרצליה",
        "street": "שדרות שבעת הכוכבים",
        "homeNumber": "8",
        "coordinates": [
          34.823895,
          32.16524
        ]
      }
    },
    {
      "name": "ישרוטל טאוור",
      "businessType": "lodging",
      "phone": "03-511-3636",
      "website": "http://www.isrotel.co.il/isrotel_tower_tel_aviv/",
      "address": {
        "city": "תל אביב יפו",
        "street": "הירקון",
        "homeNumber": "78",
        "coordinates": [
          34.76738,
          32.076694
        ]
      }
    },
    {
      "name": "Eshel Hotel",
      "businessType": "lodging",
      "phone": "09-956-8208",
      "website": "http://www.eshelhotel.com/",
      "address": {
        "city": "הרצליה",
        "street": "רמת ים",
        "homeNumber": "3",
        "coordinates": [
          34.80341,
          32.178413
        ]
      }
    },
    {
      "name": "TLV VIP",
      "businessType": "travel_agency",
      "phone": "050-973-3266",
      "website": "http://www.tlv-vip.com/",
      "address": {
        "city": "",
        "street": "",
        "homeNumber": "",
        "coordinates": [
          34.769714,
          32.080128
        ]
      }
    },
    {
      "name": "MYKA",
      "businessType": "shoe_store",
      "phone": "054-454-8241",
      "website": "http://www.myka.co.il/",
      "address": {
        "city": "",
        "street": "דיזנגוף",
        "homeNumber": "252",
        "coordinates": [
          34.77598,
          32.09067
        ]
      }
    },
    {
      "name": "Expresso Cafe Station",
      "businessType": "establishment",
      "phone": "09-774-7210",
      "website": "",
      "address": {
        "city": "רעננה",
        "street": "אחוזה",
        "homeNumber": "72",
        "coordinates": [
          34.88012,
          32.17934
        ]
      }
    },
    {
      "name": "בנק אגוד",
      "businessType": "atm",
      "phone": "1599-599064",
      "website": "http://www.unionbank.co.il/306-521-he/UnionBank.aspx#branches_details",
      "address": {
        "city": "תל אביב יפו",
        "street": "אהרון בקר",
        "homeNumber": "8",
        "coordinates": [
          34.816555,
          32.123062
        ]
      }
    },
    {
      "name": "בית המנעול והמפתח",
      "businessType": "locksmith",
      "phone": "052-333-9886",
      "website": "http://www.keylock.co.il/",
      "address": {
        "city": "תל אביב יפו",
        "street": "אבן גבירול",
        "homeNumber": "152",
        "coordinates": [
          34.782608,
          32.089603
        ]
      }
    },
    {
      "name": "Dance Tel Aviv",
      "businessType": "school",
      "phone": "03-522-0215",
      "website": "http://www.dancetelaviv.co.il/",
      "address": {
        "city": "",
        "street": "דיזנגוף",
        "homeNumber": "98",
        "coordinates": [
          34.774063,
          32.079
        ]
      }
    },
    {
      "name": "קפנטו",
      "businessType": "cafe",
      "phone": "03-540-3211",
      "website": "http://www.cafeneto.co.il/",
      "address": {
        "city": "רמת השרון",
        "street": "סוקולוב",
        "homeNumber": "93",
        "coordinates": [
          34.839825,
          32.148586
        ]
      }
    },
    {
      "name": "BELL WOOD BAR",
      "businessType": "bar",
      "phone": "054-447-8464",
      "website": "http://www.bellwood.co.il/",
      "address": {
        "city": "ירושלים",
        "street": "יוסף ריבלין",
        "homeNumber": "",
        "coordinates": [
          35.220406,
          31.780554
        ]
      }
    },
    {
      "name": "המנעולן המקצוען - מנעולן ברמת גן",
      "businessType": "locksmith",
      "phone": "072-274-6808",
      "website": "",
      "address": {
        "city": "רמת גן",
        "street": "חד נס",
        "homeNumber": "15",
        "coordinates": [
          34.82315,
          32.066154
        ]
      }
    },
    {
      "name": "נעלי בינגו גימל בע\"מ",
      "businessType": "shoe_store",
      "phone": "03-641-4915",
      "website": "http://www.bingo-shoes.co.il/",
      "address": {
        "city": "תל אביב יפו",
        "street": "",
        "homeNumber": "",
        "coordinates": [
          34.758354,
          32.04936
        ]
      }
    },
    {
      "name": "מלון סאבוי תל אביב",
      "businessType": "lodging",
      "phone": "03-514-0500",
      "website": "http://www.hotelsavoy.co.il/",
      "address": {
        "city": "תל אביב יפו",
        "street": "גאולה",
        "homeNumber": "5",
        "coordinates": [
          34.765198,
          32.07239
        ]
      }
    },
    {
      "name": "בנק אגוד",
      "businessType": "atm",
      "phone": "1599-599154",
      "website": "http://www.unionbank.co.il/532-1115-he/UnionBank.aspx#branches_details",
      "address": {
        "city": "מודיעין מכבים רעות",
        "street": "עמק זבולון",
        "homeNumber": "24",
        "coordinates": [
          34.998123,
          31.907557
        ]
      }
    },
    {
      "name": "בריח סדן כספות - יצור,שיווק,תיקון,קניה,פריצה כספת,ארונות קודש",
      "businessType": "locksmith",
      "phone": "03-930-4767",
      "website": "http://www.bariachsadan.co.il/",
      "address": {
        "city": "פתח תקווה",
        "street": "מודיעין",
        "homeNumber": "27",
        "coordinates": [
          34.892937,
          32.11061
        ]
      }
    },
    {
      "name": "Sea Side Hotel",
      "businessType": "lodging",
      "phone": "03-620-0513",
      "website": "",
      "address": {
        "city": "",
        "street": "טרומפלדור",
        "homeNumber": "20",
        "coordinates": [
          34.768253,
          32.075336
        ]
      }
    },
    {
      "name": "בי פוינט",
      "businessType": "cafe",
      "phone": "09-956-5335",
      "website": "",
      "address": {
        "city": "",
        "street": "",
        "homeNumber": "",
        "coordinates": [
          34.81856,
          32.163857
        ]
      }
    },
    {
      "name": "פוקס",
      "businessType": "clothing_store",
      "phone": "09-955-7353",
      "website": "",
      "address": {
        "city": "הרצליה",
        "street": "מדינת היהודים",
        "homeNumber": "85",
        "coordinates": [
          34.810593,
          32.166862
        ]
      }
    },
    {
      "name": "ליאונרדו בוטיק",
      "businessType": "lodging",
      "phone": "03-511-0066",
      "website": "http://www.leonardo-hotels.com/israel-hotels/tel-aviv-hotels/boutique-tel-aviv",
      "address": {
        "city": "",
        "street": "הברזל",
        "homeNumber": "17",
        "coordinates": [
          34.838116,
          32.10802
        ]
      }
    },
    {
      "name": "בנק אגוד",
      "businessType": "bank",
      "phone": "1599-599148",
      "website": "http://www.unionbank.co.il/527-3345-he/UnionBank.aspx#branches_details",
      "address": {
        "city": "בני ברק",
        "street": "אהרונוביץ'",
        "homeNumber": "12",
        "coordinates": [
          34.8389,
          32.0905
        ]
      }
    },
    {
      "name": "Atlas Boutique Hotels Israel",
      "businessType": "lodging",
      "phone": "03-542-5555",
      "website": "http://www.atlas.co.il/",
      "address": {
        "city": "תל אביב יפו",
        "street": "הירקון",
        "homeNumber": "287",
        "coordinates": [
          34.77383,
          32.093964
        ]
      }
    },
    {
      "name": "cafe cafe קפה קפה",
      "businessType": "establishment",
      "phone": "03-636-5555",
      "website": "",
      "address": {
        "city": "תל אביב יפו",
        "street": "דיזנגוף",
        "homeNumber": "",
        "coordinates": [
          34.776413,
          32.09246
        ]
      }
    },
    {
      "name": "מלון אולימפיה תל אביב",
      "businessType": "lodging",
      "phone": "03-944-4200",
      "website": "http://olympiahotel.co.il/",
      "address": {
        "city": "תל אביב יפו",
        "street": "הירקון",
        "homeNumber": "164",
        "coordinates": [
          34.770054,
          32.084755
        ]
      }
    },
    {
      "name": "מלון ויטל ביזנס בוטיק הוטל",
      "businessType": "establishment",
      "phone": "03-777-0000",
      "website": "http://vitalhotel.co.il/",
      "address": {
        "city": "",
        "street": "וייצמן",
        "homeNumber": "14",
        "coordinates": [
          34.788914,
          32.08219
        ]
      }
    },
    {
      "name": "טנדורי",
      "businessType": "restaurant",
      "phone": "09-954-6702",
      "website": "http://www.tandoori.co.il/",
      "address": {
        "city": "הרצליה",
        "street": "",
        "homeNumber": "",
        "coordinates": [
          34.80958,
          32.162247
        ]
      }
    },
    {
      "name": "טיקה",
      "businessType": "restaurant",
      "phone": "09-972-8191",
      "website": "http://www.diner.co.il/?tag=%D7%94%D7%A8%D7%A6%D7%9C%D7%99%D7%94-%D7%A4%D7%99%D7%AA%D7%95%D7%97",
      "address": {
        "city": "הרצליה",
        "street": "אריה שנקר",
        "homeNumber": "11",
        "coordinates": [
          34.808403,
          32.15823
        ]
      }
    },
    {
      "name": "מנעולן בהרצליה 24 שעות",
      "businessType": "locksmith",
      "phone": "072-259-1333",
      "website": "",
      "address": {
        "city": "הרצליה",
        "street": "סוקולוב",
        "homeNumber": "28",
        "coordinates": [
          34.84301,
          32.1672
        ]
      }
    },
    {
      "name": "דבלין הרצליה",
      "businessType": "bar",
      "phone": "09-954-4889",
      "website": "",
      "address": {
        "city": "הרצליה",
        "street": "",
        "homeNumber": "",
        "coordinates": [
          34.809456,
          32.16054
        ]
      }
    },
    {
      "name": "החתול והכלב",
      "businessType": "night_club",
      "phone": "03-561-5595",
      "website": "",
      "address": {
        "city": "תל אביב יפו",
        "street": "קרליבך",
        "homeNumber": "23",
        "coordinates": [
          34.782852,
          32.06874
        ]
      }
    },
    {
      "name": "lock4you - מנעולן בתל אביב",
      "businessType": "locksmith",
      "phone": "03-575-6681",
      "website": "http://www.lock4you.co.il/",
      "address": {
        "city": "תל אביב יפו",
        "street": "אבן גבירול",
        "homeNumber": "151",
        "coordinates": [
          34.782776,
          32.090725
        ]
      }
    },
    {
      "name": "130rock apartments",
      "businessType": "establishment",
      "phone": "03-522-9393",
      "website": "http://www.130rock.co.il/",
      "address": {
        "city": "",
        "street": "",
        "homeNumber": "",
        "coordinates": [
          34.773827,
          32.081703
        ]
      }
    },
    {
      "name": "קפה זליק",
      "businessType": "establishment",
      "phone": "03-731-1222",
      "website": "",
      "address": {
        "city": "גבעתיים",
        "street": "שיינקין",
        "homeNumber": "3",
        "coordinates": [
          34.809326,
          32.074726
        ]
      }
    },
    {
      "name": "הוניגמן",
      "businessType": "clothing_store",
      "phone": "09-956-0941",
      "website": "http://www.honigman.co.il/",
      "address": {
        "city": "הרצליה",
        "street": "מדינת היהודים",
        "homeNumber": "85",
        "coordinates": [
          34.81016,
          32.166718
        ]
      }
    },
    {
      "name": "פורץ דלתות בני ברק",
      "businessType": "locksmith",
      "phone": "055-228-8095",
      "website": "",
      "address": {
        "city": "בני ברק",
        "street": "רש\"י",
        "homeNumber": "8",
        "coordinates": [
          34.83517,
          32.085007
        ]
      }
    },
    {
      "name": "קלאסיקו",
      "businessType": "cafe",
      "phone": "09-774-4651",
      "website": "",
      "address": {
        "city": "רעננה",
        "street": "ז'בוטינסקי",
        "homeNumber": "3",
        "coordinates": [
          34.874107,
          32.17994
        ]
      }
    },
    {
      "name": "מתן המנעולן | פורץ מנעולים וכספות",
      "businessType": "locksmith",
      "phone": "072-274-6803",
      "website": "",
      "address": {
        "city": "הרצליה",
        "street": "סוקולוב",
        "homeNumber": "32",
        "coordinates": [
          34.843742,
          32.16709
        ]
      }
    },
    {
      "name": "אביב",
      "businessType": "lodging",
      "phone": "*9720",
      "website": "http://www.thehome.co.il/",
      "address": {
        "city": "תל אביב יפו",
        "street": "",
        "homeNumber": "",
        "coordinates": [
          34.767685,
          32.07786
        ]
      }
    },
    {
      "name": "בנק אגוד",
      "businessType": "atm",
      "phone": "1599-599155",
      "website": "http://www.unionbank.co.il/1145-2687-he/UnionBank.aspx#branches_details",
      "address": {
        "city": "רמת השרון",
        "street": "סוקולוב",
        "homeNumber": "90",
        "coordinates": [
          34.839935,
          32.148586
        ]
      }
    },
    {
      "name": "מנעולן ברמת השרון",
      "businessType": "locksmith",
      "phone": "050-533-1533",
      "website": "",
      "address": {
        "city": "רמת השרון",
        "street": "",
        "homeNumber": "",
        "coordinates": [
          37.479355,
          32.300266
        ]
      }
    },
    {
      "name": "חמניות - קייטרינג לאירועים",
      "businessType": "restaurant",
      "phone": "052-295-8228",
      "website": "http://www.hamaniyot.co.il/",
      "address": {
        "city": "הרצליה",
        "street": "הנביאים",
        "homeNumber": "53",
        "coordinates": [
          34.84172,
          32.169758
        ]
      }
    },
    {
      "name": "המכבים",
      "businessType": "gas_station",
      "phone": "03-674-4346",
      "website": "",
      "address": {
        "city": "רמת גן",
        "street": "",
        "homeNumber": "",
        "coordinates": [
          34.82505,
          32.05932
        ]
      }
    },
    {
      "name": "משכנות רות דניאל",
      "businessType": "lodging",
      "phone": "03-526-4500",
      "website": "http://www.mishkenot-jaffa.co.il/",
      "address": {
        "city": "Jaffa - Tel Aviv",
        "street": "",
        "homeNumber": "",
        "coordinates": [
          34.759827,
          32.05071
        ]
      }
    },
    {
      "name": "TLV.I.P",
      "businessType": "night_club",
      "phone": "052-568-8585",
      "website": "",
      "address": {
        "city": "",
        "street": "Yosef Yekuti'eli",
        "homeNumber": "24",
        "coordinates": [
          34.775696,
          32.10151
        ]
      }
    },
    {
      "name": "מונא",
      "businessType": "restaurant",
      "phone": "02-622-2283",
      "website": "http://www.monarest.co.il/",
      "address": {
        "city": "ירושלים",
        "street": "שמואל הנגיד",
        "homeNumber": "12",
        "coordinates": [
          35.214516,
          31.77997
        ]
      }
    },
    {
      "name": "Benjamin Herzliya Business Hotel",
      "businessType": "lodging",
      "phone": "09-973-6666",
      "website": "http://benjamin-hotel.co.il/",
      "address": {
        "city": "Herzelia",
        "street": "המדע",
        "homeNumber": "4",
        "coordinates": [
          34.812134,
          32.166245
        ]
      }
    },
    {
      "name": "מייקס פלייס",
      "businessType": "bar",
      "phone": "09-835-9050",
      "website": "http://www.mikesplacebars.com/he/",
      "address": {
        "city": "הרצליה",
        "street": "",
        "homeNumber": "",
        "coordinates": [
          34.80847,
          32.161255
        ]
      }
    },
    {
      "name": "Terminal",
      "businessType": "establishment",
      "phone": "03-544-0585",
      "website": "",
      "address": {
        "city": "",
        "street": "",
        "homeNumber": "",
        "coordinates": [
          34.77782,
          32.06616
        ]
      }
    },
    {
      "name": "עולם המיגון",
      "businessType": "locksmith",
      "phone": "052-738-7383",
      "website": "http://www.safeworld.co.il/",
      "address": {
        "city": "תל אביב יפו",
        "street": "טשרניחובסקי",
        "homeNumber": "15",
        "coordinates": [
          34.77121,
          32.072025
        ]
      }
    },
    {
      "name": "מנעולן 24 שעות ברעננה",
      "businessType": "locksmith",
      "phone": "072-259-1666",
      "website": "",
      "address": {
        "city": "רעננה",
        "street": "אחוזה",
        "homeNumber": "246",
        "coordinates": [
          34.859653,
          32.18396
        ]
      }
    },
    {
      "name": "ברד אנד ברקפסט",
      "businessType": "restaurant",
      "phone": "09-772-8340",
      "website": "",
      "address": {
        "city": "רעננה",
        "street": "ז'בוטינסקי",
        "homeNumber": "3",
        "coordinates": [
          34.874107,
          32.17994
        ]
      }
    },
    {
      "name": "בל ביץ'",
      "businessType": "restaurant",
      "phone": "09-955-5771",
      "website": "http://bellbeach.co.il/",
      "address": {
        "city": "הרצליה",
        "street": "",
        "homeNumber": "",
        "coordinates": [
          34.844677,
          32.16241
        ]
      }
    },
    {
      "name": "בית הפנקייק המקורי",
      "businessType": "restaurant",
      "phone": "09-951-4215",
      "website": "",
      "address": {
        "city": "",
        "street": "",
        "homeNumber": "",
        "coordinates": [
          34.81003,
          32.157413
        ]
      }
    },
    {
      "name": "תחנת מוניות עזריאלי",
      "businessType": "establishment",
      "phone": "03-608-1333",
      "website": "http://www.azrieli-taxi.co.il/",
      "address": {
        "city": "תל אביב יפו",
        "street": "",
        "homeNumber": "",
        "coordinates": [
          34.79208,
          32.07432
        ]
      }
    },
    {
      "name": "מפתח לרכב CarKey",
      "businessType": "locksmith",
      "phone": "077-436-2672",
      "website": "http://www.carkey4u.com/",
      "address": {
        "city": "תל אביב יפו",
        "street": "עליית הנוער",
        "homeNumber": "42",
        "coordinates": [
          34.800743,
          32.073357
        ]
      }
    },
    {
      "name": "סמסרה",
      "businessType": "restaurant",
      "phone": "09-955-3343",
      "website": "",
      "address": {
        "city": "",
        "street": "",
        "homeNumber": "",
        "coordinates": [
          34.808613,
          32.163807
        ]
      }
    },
    {
      "name": "רנסנס",
      "businessType": "lodging",
      "phone": "03-521-5555",
      "website": "http://www.marriott.com/hotels/travel/tlvbr-renaissance-tel-aviv-hotel/",
      "address": {
        "city": "",
        "street": "הירקון",
        "homeNumber": "121",
        "coordinates": [
          34.768536,
          32.083107
        ]
      }
    },
    {
      "name": "Galileo Hotel",
      "businessType": "establishment",
      "phone": "077-933-8251",
      "website": "http://www.sun-hotels.co.il/?cat=24",
      "address": {
        "city": "תל אביב יפו",
        "street": "הלל הזקן",
        "homeNumber": "8",
        "coordinates": [
          34.76938,
          32.070515
        ]
      }
    },
    {
      "name": "Paola Shoes",
      "businessType": "shoe_store",
      "phone": "02-581-8895",
      "website": "",
      "address": {
        "city": "בית שמש",
        "street": "שדרות יגאל אלון",
        "homeNumber": "1",
        "coordinates": [
          34.989613,
          31.756329
        ]
      }
    },
    {
      "name": "מלון דירות לב ירושלים בע\"מ",
      "businessType": "establishment",
      "phone": "02-530-0333",
      "website": "",
      "address": {
        "city": "ירושלים",
        "street": "המלך ג'ורג'",
        "homeNumber": "18",
        "coordinates": [
          35.21597,
          31.781027
        ]
      }
    },
    {
      "name": "Urbanicspace Sea Side",
      "businessType": "establishment",
      "phone": "054-770-0781",
      "website": "",
      "address": {
        "city": "תל אביב יפו",
        "street": "הירקון",
        "homeNumber": "56",
        "coordinates": [
          34.766506,
          32.074234
        ]
      }
    },
    {
      "name": "Ophir Hotel",
      "businessType": "lodging",
      "phone": "03-525-7350",
      "website": "http://www.hotel-ophir.com/",
      "address": {
        "city": "תל אביב יפו",
        "street": "",
        "homeNumber": "",
        "coordinates": [
          34.77587,
          32.07451
        ]
      }
    },
    {
      "name": "Pel Concept",
      "businessType": "clothing_store",
      "phone": "03-602-2123",
      "website": "http://www.pelconcept.com/",
      "address": {
        "city": "",
        "street": "גבעת בן יהודה",
        "homeNumber": "",
        "coordinates": [
          34.77934,
          32.050983
        ]
      }
    },
    {
      "name": "ליאו בלומ'ס",
      "businessType": "establishment",
      "phone": "03-648-2126",
      "website": "http://www.bloomsfamily.com/",
      "address": {
        "city": "תל אביב יפו",
        "street": "ראול ולנברג",
        "homeNumber": "24",
        "coordinates": [
          34.83874,
          32.11157
        ]
      }
    },
    {
      "name": "Seret Club",
      "businessType": "night_club",
      "phone": "054-740-6024",
      "website": "",
      "address": {
        "city": "",
        "street": "אבן גבירול",
        "homeNumber": "30",
        "coordinates": [
          34.781673,
          32.074966
        ]
      }
    },
    {
      "name": "Location Israel Herzliya : appartement à louer vacances Particulier piscine",
      "businessType": "lodging",
      "phone": "054-428-6202",
      "website": "http://www.trip-herzliya.com/",
      "address": {
        "city": "הרצליה",
        "street": "השונית",
        "homeNumber": "10",
        "coordinates": [
          34.795902,
          32.15889
        ]
      }
    },
    {
      "name": "קסטרו",
      "businessType": "establishment",
      "phone": "09-957-1598",
      "website": "",
      "address": {
        "city": "הרצליה",
        "street": "שדרות שבעת הכוכבים",
        "homeNumber": "8",
        "coordinates": [
          34.82495,
          32.16379
        ]
      }
    },
    {
      "name": "Wine Bar at 1872 Hashmura Restaurant",
      "businessType": "establishment",
      "phone": "04-855-1872",
      "website": "",
      "address": {
        "city": "חיפה",
        "street": "שמואל בן שבת",
        "homeNumber": "15",
        "coordinates": [
          35.02048,
          32.792034
        ]
      }
    },
    {
      "name": "Golf & Co",
      "businessType": "clothing_store",
      "phone": "09-957-8857",
      "website": "",
      "address": {
        "city": "הרצליה",
        "street": "שדרות שבעת הכוכבים",
        "homeNumber": "8",
        "coordinates": [
          34.823765,
          32.16556
        ]
      }
    },
    {
      "name": "בנק אגוד",
      "businessType": "atm",
      "phone": "1599-599073",
      "website": "http://www.unionbank.co.il/373-617-he/UnionBank.aspx#branches_details",
      "address": {
        "city": "בת ים",
        "street": "הרב ניסנבאום",
        "homeNumber": "33",
        "coordinates": [
          34.75221,
          32.012634
        ]
      }
    },
    {
      "name": "קפה אחוזה (בונז'ור - רעננה)",
      "businessType": "cafe",
      "phone": "09-741-5041",
      "website": "https://www.facebook.com/benibonzor",
      "address": {
        "city": "רעננה",
        "street": "אחוזה",
        "homeNumber": "111",
        "coordinates": [
          34.87524,
          32.18025
        ]
      }
    },
    {
      "name": "מזנון תל אביב",
      "businessType": "locksmith",
      "phone": "052-465-9484",
      "website": "",
      "address": {
        "city": "תל אביב יפו",
        "street": "דרך שלמה",
        "homeNumber": "113",
        "coordinates": [
          34.77437,
          32.054985
        ]
      }
    },
    {
      "name": "מלון לאונרדו ירושלים",
      "businessType": "lodging",
      "phone": "02-532-0000",
      "website": "http://www.fattal.co.il/leonardo-jerusalem-hotel",
      "address": {
        "city": "ירושלים",
        "street": "",
        "homeNumber": "",
        "coordinates": [
          35.22845,
          31.789465
        ]
      }
    },
    {
      "name": "Liebling",
      "businessType": "shoe_store",
      "phone": "03-525-1020",
      "website": "http://www.liebling-shoes.com/",
      "address": {
        "city": "",
        "street": "",
        "homeNumber": "",
        "coordinates": [
          34.774845,
          32.07711
        ]
      }
    },
    {
      "name": "מנעולן בני ברק",
      "businessType": "locksmith",
      "phone": "050-599-0338",
      "website": "",
      "address": {
        "city": "בני ברק",
        "street": "בעל שם טוב",
        "homeNumber": "26",
        "coordinates": [
          34.83536,
          32.085
        ]
      }
    },
    {
      "name": "רימונים ירושלים",
      "businessType": "lodging",
      "phone": "02-675-2222",
      "website": "http://www.rimonim.com/%D7%A8%D7%99%D7%9E%D7%95%D7%A0%D7%99%D7%9D-%D7%99%D7%A8%D7%95%D7%A9%D7%9C%D7%99%D7%9D",
      "address": {
        "city": "ירושלים",
        "street": "",
        "homeNumber": "",
        "coordinates": [
          35.18683,
          31.767416
        ]
      }
    },
    {
      "name": "מעוברת - בגדי הריון",
      "businessType": "clothing_store",
      "phone": "03-549-7534",
      "website": "http://www.meuberet.co.il/",
      "address": {
        "city": "רמת השרון",
        "street": "סוקולוב",
        "homeNumber": "63",
        "coordinates": [
          34.83822,
          32.14518
        ]
      }
    },
    {
      "name": "מלון פלטין",
      "businessType": "lodging",
      "phone": "02-623-1141",
      "website": "http://www.palatinhotel.com/",
      "address": {
        "city": "ירושלים",
        "street": "אגריפס",
        "homeNumber": "4",
        "coordinates": [
          35.21709,
          31.782808
        ]
      }
    },
    {
      "name": "כפר המכביה",
      "businessType": "lodging",
      "phone": "03-671-5715",
      "website": "http://www.kmc-hotel.co.il/?cat=3",
      "address": {
        "city": "רמת גן",
        "street": "",
        "homeNumber": "",
        "coordinates": [
          34.828587,
          32.055622
        ]
      }
    },
    {
      "name": "מלון פארק פלאזה",
      "businessType": "lodging",
      "phone": "02-658-2222",
      "website": "http://www.prima-hotels-israel.com/jerusalem-hotels/prima-park-jerusalem-hotel",
      "address": {
        "city": "ירושלים",
        "street": "",
        "homeNumber": "",
        "coordinates": [
          35.19815,
          31.785173
        ]
      }
    },
    {
      "name": "Tel-Aviv Zimmer",
      "businessType": "establishment",
      "phone": "03-685-8467",
      "website": "",
      "address": {
        "city": "תל אביב יפו",
        "street": "ביל\"ו",
        "homeNumber": "43",
        "coordinates": [
          34.780903,
          32.07185
        ]
      }
    },
    {
      "name": "רולדין",
      "businessType": "cafe",
      "phone": "09-958-0955",
      "website": "http://www.roladin.co.il/",
      "address": {
        "city": "הרצליה",
        "street": "",
        "homeNumber": "",
        "coordinates": [
          34.824017,
          32.16452
        ]
      }
    },
    {
      "name": "שכפול מפתח, שכפול שלט",
      "businessType": "store",
      "phone": "050-423-2342",
      "website": "http://www.galgalon.org/",
      "address": {
        "city": "הרצליה",
        "street": "הסדנאות",
        "homeNumber": "7",
        "coordinates": [
          34.806637,
          32.16128
        ]
      }
    },
    {
      "name": "אכסניית פלורנטין",
      "businessType": "lodging",
      "phone": "03-518-7551",
      "website": "http://www.florentinehostel.com/",
      "address": {
        "city": "תל אביב יפו",
        "street": "",
        "homeNumber": "",
        "coordinates": [
          34.76503,
          32.05594
        ]
      }
    },
    {
      "name": "ארז מנעולים",
      "businessType": "locksmith",
      "phone": "052-336-6114",
      "website": "http://www.erezlocks.co.il/",
      "address": {
        "city": "רמת גן",
        "street": "דרך זאב ז'בוטינסקי",
        "homeNumber": "127",
        "coordinates": [
          34.81863,
          32.089783
        ]
      }
    },
    {
      "name": "קפה נואר",
      "businessType": "cafe",
      "phone": "03-566-3018",
      "website": "http://noirgroup.co.il/cafe-noir",
      "address": {
        "city": "",
        "street": "אחד העם",
        "homeNumber": "43",
        "coordinates": [
          34.775726,
          32.065582
        ]
      }
    },
    {
      "name": "מרתוניה - הבית של הרצים",
      "businessType": "shoe_store",
      "phone": "03-647-1999",
      "website": "http://www.marathonya.co.il/",
      "address": {
        "city": "תל אביב יפו",
        "street": "ראול ולנברג",
        "homeNumber": "",
        "coordinates": [
          34.82884,
          32.106323
        ]
      }
    },
    {
      "name": "כללית - גיל עמל",
      "businessType": "gas_station",
      "phone": "09-762-5800",
      "website": "http://clalit.co.il/",
      "address": {
        "city": "הוד השרון",
        "street": "אלי כהן",
        "homeNumber": "8",
        "coordinates": [
          34.915836,
          32.156223
        ]
      }
    },
    {
      "name": "apartment",
      "businessType": "shopping_mall",
      "phone": "052-287-6044",
      "website": "",
      "address": {
        "city": "",
        "street": "דיזנגוף",
        "homeNumber": "",
        "coordinates": [
          34.774563,
          32.085835
        ]
      }
    },
    {
      "name": "מרכז קניות חוצות שפיים",
      "businessType": "shopping_mall",
      "phone": "09-952-3557",
      "website": "http://www.shfayimcenter.co.il/Info.asp",
      "address": {
        "city": "",
        "street": "",
        "homeNumber": "",
        "coordinates": [
          34.82833,
          32.220764
        ]
      }
    },
    {
      "name": "פייר קארדן",
      "businessType": "clothing_store",
      "phone": "09-957-2924",
      "website": "http://www.pierrecardin.co.il/",
      "address": {
        "city": "הרצליה",
        "street": "שדרות שבעת הכוכבים",
        "homeNumber": "8",
        "coordinates": [
          34.823833,
          32.16518
        ]
      }
    },
    {
      "name": "Dan Tel Aviv Hotel",
      "businessType": "establishment",
      "phone": "03-520-2552",
      "website": "http://www.danhotels.com/TelAvivHotels/DanTelAvivHotel/?utm_source=google-plus&utm_medium=social&utm_content=dan-tlv&utm_campaign=google-plus-local",
      "address": {
        "city": "תל אביב יפו",
        "street": "הירקון",
        "homeNumber": "99",
        "coordinates": [
          34.76769,
          32.079575
        ]
      }
    },
    {
      "name": "ביתא קפה",
      "businessType": "cafe",
      "phone": "053-710-3003",
      "website": "http://www.rest.co.il/sites/default.asp?txtRestID=14474",
      "address": {
        "city": "הרצליה",
        "street": "",
        "homeNumber": "",
        "coordinates": [
          34.843815,
          32.151417
        ]
      }
    },
    {
      "name": "בל",
      "businessType": "lodging",
      "phone": "03-517-4291",
      "website": "http://www.bellhotel-telaviv.com/",
      "address": {
        "city": "תל אביב יפו",
        "street": "",
        "homeNumber": "",
        "coordinates": [
          34.766354,
          32.073254
        ]
      }
    },
    {
      "name": "מנעולן תל אביב - שירותי חילוץ ופריצה 24 שעות",
      "businessType": "locksmith",
      "phone": "054-834-8777",
      "website": "https://sites.google.com/site/locksmithtelaviv",
      "address": {
        "city": "תל אביב יפו",
        "street": "דיזנגוף",
        "homeNumber": "",
        "coordinates": [
          34.774563,
          32.085835
        ]
      }
    },
    {
      "name": "ג'ינג'ית - בגדי מעצבים שמלות ערב",
      "businessType": "clothing_store",
      "phone": "09-957-2577",
      "website": "http://www.gin-git.co.il/",
      "address": {
        "city": "הרצליה",
        "street": "נורוק",
        "homeNumber": "2",
        "coordinates": [
          34.8407,
          32.155266
        ]
      }
    },
    {
      "name": "בנק אגוד",
      "businessType": "bank",
      "phone": "1599-599079",
      "website": "http://www.unionbank.co.il/530-3107-he/UnionBank.aspx#branches_details",
      "address": {
        "city": "הרצליה",
        "street": "הסדנאות",
        "homeNumber": "9",
        "coordinates": [
          34.806213,
          32.161037
        ]
      }
    },
    {
      "name": "H&M",
      "businessType": "clothing_store",
      "phone": "074-715-5777",
      "website": "",
      "address": {
        "city": "הרצליה",
        "street": "שדרות שבעת הכוכבים",
        "homeNumber": "8",
        "coordinates": [
          34.82447,
          32.16552
        ]
      }
    },
    {
      "name": "קונדיטוריה אנה",
      "businessType": "restaurant",
      "phone": "09-740-4142",
      "website": "http://www.anna.co.il/",
      "address": {
        "city": "רעננה",
        "street": "אחוזה",
        "homeNumber": "106",
        "coordinates": [
          34.87644,
          32.180237
        ]
      }
    },
    {
      "name": "לולו קפה פטיסרי בע\"מ",
      "businessType": "establishment",
      "phone": "054-802-3003",
      "website": "",
      "address": {
        "city": "תל אביב יפו",
        "street": "אלקלעי",
        "homeNumber": "5",
        "coordinates": [
          34.78001,
          32.090942
        ]
      }
    },
    {
      "name": "Nautica",
      "businessType": "clothing_store",
      "phone": "09-955-7952",
      "website": "",
      "address": {
        "city": "הרצליה",
        "street": "שדרות שבעת הכוכבים",
        "homeNumber": "8",
        "coordinates": [
          34.82423,
          32.165585
        ]
      }
    },
    {
      "name": "מלון אלכסנדר תל אביב",
      "businessType": "lodging",
      "phone": "03-545-2222",
      "website": "http://www.alexander.co.il/",
      "address": {
        "city": "",
        "street": "",
        "homeNumber": "",
        "coordinates": [
          34.7731,
          32.09353
        ]
      }
    },
    {
      "name": "מנעולן 24 שעות ברמת אביב",
      "businessType": "locksmith",
      "phone": "072-259-1117",
      "website": "",
      "address": {
        "city": "",
        "street": "בני אפרים",
        "homeNumber": "218",
        "coordinates": [
          34.817665,
          32.116505
        ]
      }
    },
    {
      "name": "החברה לניהול קניון ערים בע\"מ",
      "businessType": "establishment",
      "phone": "09-767-7788",
      "website": "http://www.max-arim.co.il/",
      "address": {
        "city": "כפר סבא",
        "street": "",
        "homeNumber": "",
        "coordinates": [
          34.904312,
          32.178406
        ]
      }
    },
    {
      "name": "Dreck | דרעק",
      "businessType": "night_club",
      "phone": "052-846-8462",
      "website": "https://www.facebook.com/dreck.tlv",
      "address": {
        "city": "",
        "street": "דיזנגוף",
        "homeNumber": "98",
        "coordinates": [
          34.774063,
          32.079
        ]
      }
    },
    {
      "name": "בנק אגוד",
      "businessType": "bank",
      "phone": "1599-599142",
      "website": "http://www.unionbank.co.il/531-1113-he/UnionBank.aspx#branches_details",
      "address": {
        "city": "מבשרת ציון",
        "street": "שדרות החושן",
        "homeNumber": "6",
        "coordinates": [
          35.15636,
          31.808155
        ]
      }
    },
    {
      "name": "קפה נגה",
      "businessType": "cafe",
      "phone": "03-629-6457",
      "website": "http://www.cafenoga.co.il/",
      "address": {
        "city": "תל אביב יפו",
        "street": "פינסקר",
        "homeNumber": "4",
        "coordinates": [
          34.768967,
          32.072983
        ]
      }
    },
    {
      "name": "קסטרו",
      "businessType": "establishment",
      "phone": "03-922-7418",
      "website": "",
      "address": {
        "city": "פתח תקווה",
        "street": "ז'בוטינסקי",
        "homeNumber": "72",
        "coordinates": [
          34.87573,
          32.14072
        ]
      }
    },
    {
      "name": "מלון סאן סיטי",
      "businessType": "lodging",
      "phone": "03-517-7913",
      "website": "http://www.sun-hotels.co.il/",
      "address": {
        "city": "תל אביב יפו",
        "street": "אלנבי",
        "homeNumber": "42",
        "coordinates": [
          34.768913,
          32.072376
        ]
      }
    },
    {
      "name": "alfi maftechot",
      "businessType": "locksmith",
      "phone": "052-331-8319",
      "website": "",
      "address": {
        "city": "Herzelia",
        "street": "שדרות בן גוריון",
        "homeNumber": "18",
        "coordinates": [
          34.842407,
          32.164017
        ]
      }
    },
    {
      "name": "כרמליס בייגל",
      "businessType": "restaurant",
      "phone": "1599-500502",
      "website": "",
      "address": {
        "city": "הרצליה",
        "street": "אריה שנקר",
        "homeNumber": "6",
        "coordinates": [
          34.809326,
          32.160286
        ]
      }
    },
    {
      "name": "LIR'S",
      "businessType": "restaurant",
      "phone": "09-955-4752",
      "website": "",
      "address": {
        "city": "הרצליה",
        "street": "משכית",
        "homeNumber": "32",
        "coordinates": [
          34.809586,
          32.16228
        ]
      }
    },
    {
      "name": "פטלינה",
      "businessType": "restaurant",
      "phone": "03-648-3221",
      "website": "",
      "address": {
        "city": "תל אביב יפו",
        "street": "עיר שמש",
        "homeNumber": "73",
        "coordinates": [
          34.830593,
          32.124344
        ]
      }
    },
    {
      "name": "רוזה בר",
      "businessType": "establishment",
      "phone": "052-222-1984",
      "website": "",
      "address": {
        "city": "",
        "street": "",
        "homeNumber": "",
        "coordinates": [
          34.84374,
          32.14316
        ]
      }
    },
    {
      "name": "בנק אגוד",
      "businessType": "bank",
      "phone": "1599-599063",
      "website": "http://www.unionbank.co.il/306-518-he/UnionBank.aspx#branches_details",
      "address": {
        "city": "תל אביב יפו",
        "street": "אחוזת בית",
        "homeNumber": "6",
        "coordinates": [
          34.770184,
          32.063736
        ]
      }
    },
    {
      "name": "בלו ביי",
      "businessType": "lodging",
      "phone": "09-860-0100",
      "website": "http://www.blue-bay.co.il/",
      "address": {
        "city": "נתניה",
        "street": "",
        "homeNumber": "",
        "coordinates": [
          34.85535,
          32.350857
        ]
      }
    },
    {
      "name": "פיקוק - Peacock",
      "businessType": "establishment",
      "phone": "03-686-8259",
      "website": "",
      "address": {
        "city": "תל אביב יפו",
        "street": "מרמורק",
        "homeNumber": "14",
        "coordinates": [
          34.78044,
          32.071552
        ]
      }
    },
    {
      "name": "קפה מצדה הרצליה",
      "businessType": "cafe",
      "phone": "09-958-6102",
      "website": "",
      "address": {
        "city": "הרצליה",
        "street": "יוחנן הסנדלר",
        "homeNumber": "1",
        "coordinates": [
          34.809242,
          32.164257
        ]
      }
    },
    {
      "name": "Three Arches Hotel",
      "businessType": "lodging",
      "phone": "02-569-2692",
      "website": "http://ymca3arches.com/",
      "address": {
        "city": "ירושלים",
        "street": "דוד המלך",
        "homeNumber": "26",
        "coordinates": [
          35.22149,
          31.774303
        ]
      }
    },
    {
      "name": "צומת ספרים געש",
      "businessType": "gas_station",
      "phone": "09-951-4914",
      "website": "http://www.booknet.co.il/",
      "address": {
        "city": "געש",
        "street": "",
        "homeNumber": "",
        "coordinates": [
          34.82958,
          32.224373
        ]
      }
    },
    {
      "name": "בנק אגוד",
      "businessType": "atm",
      "phone": "1599-599071",
      "website": "http://www.unionbank.co.il/524-1096-he/UnionBank.aspx#branches_details",
      "address": {
        "city": "אשדוד",
        "street": "",
        "homeNumber": "",
        "coordinates": [
          34.639908,
          31.795284
        ]
      }
    },
    {
      "name": "גורילה בר קפה הרצליה",
      "businessType": "bar",
      "phone": "09-955-6656",
      "website": "http://gorillacafe.co.il/",
      "address": {
        "city": "הרצליה",
        "street": "סוקולוב",
        "homeNumber": "17",
        "coordinates": [
          34.84029,
          32.167294
        ]
      }
    },
    {
      "name": "קפה בתיה",
      "businessType": "cafe",
      "phone": "03-522-1335",
      "website": "",
      "address": {
        "city": "תל אביב יפו",
        "street": "",
        "homeNumber": "",
        "coordinates": [
          34.783737,
          32.0697
        ]
      }
    },
    {
      "name": "Nina Cafe Hotel Suites - Boutique Hotel",
      "businessType": "lodging",
      "phone": "052-508-4141",
      "website": "http://www.ninacafehotel.com/",
      "address": {
        "city": "Тель-Авів",
        "street": "שבזי",
        "homeNumber": "31",
        "coordinates": [
          34.765614,
          32.0625
        ]
      }
    },
    {
      "name": "מטאדור",
      "businessType": "restaurant",
      "phone": "09-774-0084",
      "website": "",
      "address": {
        "city": "רעננה",
        "street": "אחוזה",
        "homeNumber": "135",
        "coordinates": [
          34.87292,
          32.180767
        ]
      }
    },
    {
      "name": "קפה והפוגה",
      "businessType": "cafe",
      "phone": "09-954-8888",
      "website": "",
      "address": {
        "city": "הרצליה",
        "street": "שדרות בן גוריון",
        "homeNumber": "22",
        "coordinates": [
          34.842396,
          32.162907
        ]
      }
    },
    {
      "name": "Leonardo Plaza Jerusalem",
      "businessType": "lodging",
      "phone": "02-629-8666",
      "website": "http://www.leonardo-hotels.com/israel-hotels/jerusalem-hotels/plaza-hotel-jerusalem",
      "address": {
        "city": "ירושלים",
        "street": "המלך ג'ורג'",
        "homeNumber": "47",
        "coordinates": [
          35.217686,
          31.776424
        ]
      }
    },
    {
      "name": "מסעדת נג'ימה",
      "businessType": "restaurant",
      "phone": "09-744-3299",
      "website": "http://www.rest.co.il/sites/Default.asp?txtRestID=11530",
      "address": {
        "city": "רעננה",
        "street": "אליעזר יפה",
        "homeNumber": "3",
        "coordinates": [
          34.8748,
          32.18081
        ]
      }
    },
    {
      "name": "המלונה מזון לכלבים,לחתולים,לבעלי חיים,אילוף ומספרה לכלבים",
      "businessType": "pet_store",
      "phone": "1-800-207-111",
      "website": "http://www.hameluna.co.il/",
      "address": {
        "city": "חיפה",
        "street": "ליבריה",
        "homeNumber": "2",
        "coordinates": [
          35.0037,
          32.769184
        ]
      }
    },
    {
      "name": "מנעולן משווק מורשה חסם מכירה תיקון דלתות",
      "businessType": "locksmith",
      "phone": "03-556-1020",
      "website": "",
      "address": {
        "city": "בני ברק",
        "street": "לח\"י",
        "homeNumber": "2",
        "coordinates": [
          34.828594,
          32.10403
        ]
      }
    },
    {
      "name": "מייקס פלייס",
      "businessType": "bar",
      "phone": "03-510-6392",
      "website": "http://www.mikesplacebars.com/he/",
      "address": {
        "city": "תל אביב יפו",
        "street": "",
        "homeNumber": "",
        "coordinates": [
          34.76647,
          32.07707
        ]
      }
    },
    {
      "name": "טראפיק בר",
      "businessType": "night_club",
      "phone": "053-334-1232",
      "website": "http://www.facebook.com/TrafficBenYehuda188",
      "address": {
        "city": "תל אביב יפו",
        "street": "בן יהודה",
        "homeNumber": "188",
        "coordinates": [
          34.773636,
          32.08851
        ]
      }
    },
    {
      "name": "Dan Panorama Jerusalem",
      "businessType": "lodging",
      "phone": "03-520-2552",
      "website": "http://www.danhotels.com/JerusalemHotels/DanPanoramaJerusalemHotel/",
      "address": {
        "city": "ירושלים",
        "street": "קרן היסוד",
        "homeNumber": "39",
        "coordinates": [
          35.221592,
          31.77241
        ]
      }
    },
    {
      "name": "Billabong",
      "businessType": "clothing_store",
      "phone": "09-950-5786",
      "website": "",
      "address": {
        "city": "הרצליה",
        "street": "שדרות שבעת הכוכבים",
        "homeNumber": "8",
        "coordinates": [
          34.82409,
          32.165092
        ]
      }
    },
    {
      "name": "HaYarkon 48 Hostel",
      "businessType": "lodging",
      "phone": "03-516-8989",
      "website": "http://www.hayarkon48.com/",
      "address": {
        "city": "תל אביב יפו",
        "street": "הירקון",
        "homeNumber": "48",
        "coordinates": [
          34.766132,
          32.073036
        ]
      }
    },
    {
      "name": "קפה תפוז (2001) בע\"מ",
      "businessType": "establishment",
      "phone": "09-746-9322",
      "website": "",
      "address": {
        "city": "",
        "street": "",
        "homeNumber": "",
        "coordinates": [
          34.878445,
          32.21486
        ]
      }
    },
    {
      "name": "קניון איילון",
      "businessType": "shopping_mall",
      "phone": "03-570-3105",
      "website": "http://www.azrieli.com/Mall.aspx?CenterID=1",
      "address": {
        "city": "רמת גן",
        "street": "",
        "homeNumber": "",
        "coordinates": [
          34.82673,
          32.100487
        ]
      }
    },
    {
      "name": "מייקס פלייס",
      "businessType": "bar",
      "phone": "052-381-4861",
      "website": "http://www.mikesplacebars.com/",
      "address": {
        "city": "ירושלים",
        "street": "",
        "homeNumber": "",
        "coordinates": [
          35.2206,
          31.781584
        ]
      }
    },
    {
      "name": "Dan Hotels",
      "businessType": "lodging",
      "phone": "03-520-2552",
      "website": "http://www.danhotels.com/?utm_source=google-plus&utm_medium=social&utm_content=main-brand-page&utm_campaign=google-plus-brand-page",
      "address": {
        "city": "תל אביב יפו",
        "street": "הירקון",
        "homeNumber": "111",
        "coordinates": [
          34.768326,
          32.08053
        ]
      }
    },
    {
      "name": "רולדין רמת השרון (1998) בע\"מ",
      "businessType": "cafe",
      "phone": "03-540-9324",
      "website": "http://www.roladin.co.il/",
      "address": {
        "city": "רמת השרון",
        "street": "סוקולוב",
        "homeNumber": "37",
        "coordinates": [
          34.8368,
          32.14213
        ]
      }
    },
    {
      "name": "שטינר אורתופדיקה",
      "businessType": "shoe_store",
      "phone": "03-695-5883",
      "website": "http://steiner-shoes.com/",
      "address": {
        "city": "תל אביב יפו",
        "street": "אבן גבירול",
        "homeNumber": "46",
        "coordinates": [
          34.781536,
          32.07723
        ]
      }
    },
    {
      "name": "Baby-NewLife",
      "businessType": "establishment",
      "phone": "052-482-4830",
      "website": "http://stores.ebay.com/baby-newlife",
      "address": {
        "city": "בת ים",
        "street": "",
        "homeNumber": "",
        "coordinates": [
          34.74802,
          32.013187
        ]
      }
    },
    {
      "name": "סוכה ישראל",
      "businessType": "shopping_mall",
      "phone": "054-443-0915",
      "website": "http://sukah-israel.info/",
      "address": {
        "city": "בני ברק",
        "street": "הרב הרצוג",
        "homeNumber": "16",
        "coordinates": [
          34.82503,
          32.08884
        ]
      }
    },
    {
      "name": "בנק אגוד",
      "businessType": "atm",
      "phone": "1599-599157",
      "website": "http://www.unionbank.co.il/306-3504-he/UnionBank.aspx#branches_details",
      "address": {
        "city": "תל אביב יפו",
        "street": "וייצמן",
        "homeNumber": "32",
        "coordinates": [
          34.78956,
          32.084957
        ]
      }
    },
    {
      "name": "פיוז'ן",
      "businessType": "clothing_store",
      "phone": "073-250-5088",
      "website": "",
      "address": {
        "city": "הרצליה",
        "street": "מדינת היהודים",
        "homeNumber": "85",
        "coordinates": [
          34.81091,
          32.167366
        ]
      }
    },
    {
      "name": "מלון דבורה",
      "businessType": "lodging",
      "phone": "03-527-8282",
      "website": "http://english.arcadiahotels.co.il/deborah-hotel",
      "address": {
        "city": "",
        "street": "בן יהודה",
        "homeNumber": "87",
        "coordinates": [
          34.771126,
          32.08257
        ]
      }
    },
    {
      "name": "Chef Hostel Montefiore",
      "businessType": "lodging",
      "phone": "052-289-5145",
      "website": "http://www.chefhostel.com/",
      "address": {
        "city": "Telaviva",
        "street": "מונטיפיורי",
        "homeNumber": "19",
        "coordinates": [
          34.771458,
          32.06521
        ]
      }
    },
    {
      "name": "מנעולן ברעננה",
      "businessType": "locksmith",
      "phone": "072-259-1555",
      "website": "",
      "address": {
        "city": "רעננה",
        "street": "הכלנית",
        "homeNumber": "4",
        "coordinates": [
          34.886364,
          32.19024
        ]
      }
    },
    {
      "name": "הלב הכחול",
      "businessType": "shoe_store",
      "phone": "03-670-2494",
      "website": "http://www.blueheart.co.il/",
      "address": {
        "city": "רמת גן",
        "street": "דרך זאב ז'בוטינסקי",
        "homeNumber": "46",
        "coordinates": [
          34.80985,
          32.084633
        ]
      }
    },
    {
      "name": "בנק אגוד",
      "businessType": "bank",
      "phone": "1599-599091",
      "website": "http://www.unionbank.co.il/535-1121-he/UnionBank.aspx#branches_details",
      "address": {
        "city": "נתניה",
        "street": "יהושע שטמפפר",
        "homeNumber": "17",
        "coordinates": [
          34.854008,
          32.328075
        ]
      }
    },
    {
      "name": "אלי יתקן ויסדר - חשמלאי - מנעולן",
      "businessType": "electrician",
      "phone": "052-890-6388",
      "website": "",
      "address": {
        "city": "כפר סבא",
        "street": "ויצמן",
        "homeNumber": "180",
        "coordinates": [
          34.917526,
          32.173065
        ]
      }
    },
    {
      "name": "אדיסון",
      "businessType": "restaurant",
      "phone": "09-774-3131",
      "website": "",
      "address": {
        "city": "רעננה",
        "street": "אחוזה",
        "homeNumber": "282",
        "coordinates": [
          34.85485,
          32.18503
        ]
      }
    },
    {
      "name": "הלבשת צבי",
      "businessType": "clothing_store",
      "phone": "09-771-3463",
      "website": "",
      "address": {
        "city": "רעננה",
        "street": "אחוזה",
        "homeNumber": "125",
        "coordinates": [
          34.873978,
          32.18055
        ]
      }
    },
    {
      "name": "קסידי",
      "businessType": "clothing_store",
      "phone": "09-950-4174",
      "website": "",
      "address": {
        "city": "הרצליה",
        "street": "שדרות שבעת הכוכבים",
        "homeNumber": "8",
        "coordinates": [
          34.82354,
          32.165276
        ]
      }
    },
    {
      "name": "לאונרדו בזל תל אביב",
      "businessType": "lodging",
      "phone": "03-511-0099",
      "website": "http://www.fattal-hotels.com/tel-aviv-hotels/leonardo-basel-tel-aviv",
      "address": {
        "city": "תל אביב יפו",
        "street": "",
        "homeNumber": "",
        "coordinates": [
          34.76999,
          32.084286
        ]
      }
    },
    {
      "name": "הטורי הנזו",
      "businessType": "restaurant",
      "phone": "09-951-4045",
      "website": "",
      "address": {
        "city": "הרצליה",
        "street": "ספיר",
        "homeNumber": "1",
        "coordinates": [
          34.81199,
          32.164425
        ]
      }
    },
    {
      "name": "מלון בל בוטיק וספא",
      "businessType": "spa",
      "phone": "03-517-4291",
      "website": "http://www.bellhotel-telaviv.com/",
      "address": {
        "city": "תל אביב יפו",
        "street": "הירקון",
        "homeNumber": "50",
        "coordinates": [
          34.766182,
          32.073246
        ]
      }
    },
    {
      "name": "Levy Boutique Hotels",
      "businessType": "restaurant",
      "phone": "052-250-4487",
      "website": "http://www.levy-hotel.com/",
      "address": {
        "city": "",
        "street": "שבזי",
        "homeNumber": "14",
        "coordinates": [
          34.764175,
          32.061565
        ]
      }
    },
    {
      "name": "Hotel De La Mer",
      "businessType": "lodging",
      "phone": "03-510-0011",
      "website": "http://www.delamer.co.il/",
      "address": {
        "city": "",
        "street": "הירקון",
        "homeNumber": "62",
        "coordinates": [
          34.766567,
          32.07499
        ]
      }
    },
    {
      "name": "Dan Panorama Tel Aviv Hotel",
      "businessType": "lodging",
      "phone": "03-520-2552",
      "website": "http://www.danhotels.com/TelAvivHotels/DanPanoramaTelAvivHotel/",
      "address": {
        "city": "תל אביב יפו",
        "street": "פרופסור יחזקאל קויפמן",
        "homeNumber": "10",
        "coordinates": [
          34.762962,
          32.06491
        ]
      }
    },
    {
      "name": "קפה של מלאכים",
      "businessType": "establishment",
      "phone": "09-958-4249",
      "website": "",
      "address": {
        "city": "כפר שמריהו",
        "street": "החורש",
        "homeNumber": "2",
        "coordinates": [
          34.818623,
          32.18019
        ]
      }
    },
    {
      "name": "מנעולן ברעננה",
      "businessType": "locksmith",
      "phone": "054-550-8573",
      "website": "",
      "address": {
        "city": "רעננה",
        "street": "התעשייה",
        "homeNumber": "3",
        "coordinates": [
          34.882282,
          32.196594
        ]
      }
    },
    {
      "name": "בנק אגוד",
      "businessType": "bank",
      "phone": "1599-599066",
      "website": "http://www.unionbank.co.il/306-520-he/UnionBank.aspx#branches_details",
      "address": {
        "city": "תל אביב יפו",
        "street": "גורדון",
        "homeNumber": "42",
        "coordinates": [
          34.773487,
          32.08175
        ]
      }
    },
    {
      "name": "Retno Hotel",
      "businessType": "establishment",
      "phone": "02 295 0022",
      "website": "",
      "address": {
        "city": "Ramallah",
        "street": "",
        "homeNumber": "",
        "coordinates": [
          35.20667,
          31.924229
        ]
      }
    },
    {
      "name": "פרימה רויאל",
      "businessType": "lodging",
      "phone": "02-560-7111",
      "website": "http://www.prima.co.il/prima-royal-jerusaelm-hotel",
      "address": {
        "city": "ירושלים",
        "street": "",
        "homeNumber": "",
        "coordinates": [
          35.22056,
          31.772324
        ]
      }
    },
    {
      "name": "קפה טוסקנה",
      "businessType": "cafe",
      "phone": "09-954-4078",
      "website": "",
      "address": {
        "city": "הרצליה",
        "street": "הנדיב",
        "homeNumber": "3",
        "coordinates": [
          34.840366,
          32.167366
        ]
      }
    },
    {
      "name": "TEL AVIV APARTMENTS rental apartments NEVE TZEDEK TOWER POOL OWNER",
      "businessType": "establishment",
      "phone": "054-428-6202",
      "website": "http://www.telavivrent.weebly.com/",
      "address": {
        "city": "",
        "street": "אילת",
        "homeNumber": "61",
        "coordinates": [
          34.767296,
          32.059483
        ]
      }
    },
    {
      "name": "מגדל ירושלים",
      "businessType": "lodging",
      "phone": "02-620-9209",
      "website": "http://hebrew.jerusalemtowerhotel.com/",
      "address": {
        "city": "Jerusalem",
        "street": "",
        "homeNumber": "",
        "coordinates": [
          35.21832,
          31.78038
        ]
      }
    },
    {
      "name": "נמל התעופה בן גוריון",
      "businessType": "airport",
      "phone": "03-975-5555",
      "website": "http://www.iaa.gov.il/RASHAT/he-IL/Airports/BenGurion",
      "address": {
        "city": "",
        "street": "",
        "homeNumber": "",
        "coordinates": [
          34.88541,
          32.00553
        ]
      }
    },
    {
      "name": "מלון מרקיור תל-אביב סיטי סנטר",
      "businessType": "lodging",
      "phone": "03-628-8888",
      "website": "http://www.mercure.com/",
      "address": {
        "city": "",
        "street": "",
        "homeNumber": "",
        "coordinates": [
          34.768345,
          32.07442
        ]
      }
    },
    {
      "name": "Reva Mann",
      "businessType": "establishment",
      "phone": "054-420-2198",
      "website": "",
      "address": {
        "city": "ירושלים",
        "street": "חנניה",
        "homeNumber": "4",
        "coordinates": [
          35.21966,
          31.763191
        ]
      }
    },
    {
      "name": "מלון סינמה תל אביב",
      "businessType": "lodging",
      "phone": "03-520-7100",
      "website": "http://www.atlas.co.il/Heb/%D7%9E%D7%9C%D7%95%D7%9F-%D7%A1%D7%99%D7%A0%D7%9E%D7%94",
      "address": {
        "city": "תל אביב יפו",
        "street": "",
        "homeNumber": "",
        "coordinates": [
          34.77484,
          32.07814
        ]
      }
    },
    {
      "name": "Boutique Seashore Hotel in Tel Aviv - Raphael Hotels",
      "businessType": "lodging",
      "phone": "03-522-7444",
      "website": "",
      "address": {
        "city": "",
        "street": "הירקון",
        "homeNumber": "165",
        "coordinates": [
          34.77011,
          32.08545
        ]
      }
    },
    {
      "name": "מלון קומודור",
      "businessType": "lodging",
      "phone": "02-627-1414",
      "website": "http://www.commodore-jer.com/",
      "address": {
        "city": "Jerusalem",
        "street": "",
        "homeNumber": "",
        "coordinates": [
          35.243805,
          31.785507
        ]
      }
    },
    {
      "name": "וויט הול",
      "businessType": "restaurant",
      "phone": "09-958-0402",
      "website": "",
      "address": {
        "city": "הרצליה",
        "street": "משכית",
        "homeNumber": "35",
        "coordinates": [
          34.80985,
          32.162067
        ]
      }
    },
    {
      "name": "מונטג'י",
      "businessType": "restaurant",
      "phone": "09-962-8808",
      "website": "",
      "address": {
        "city": "",
        "street": "",
        "homeNumber": "",
        "coordinates": [
          34.808292,
          32.15828
        ]
      }
    },
    {
      "name": "Shalom Hotel & Relax",
      "businessType": "lodging",
      "phone": "03-762-5400",
      "website": "http://www.atlas.co.il/shalom-hotel-tel-aviv/",
      "address": {
        "city": "תל אביב יפו",
        "street": "הירקון",
        "homeNumber": "216",
        "coordinates": [
          34.772064,
          32.08937
        ]
      }
    },
    {
      "name": "Sideways Bar",
      "businessType": "bar",
      "phone": "02-561-2221",
      "website": "",
      "address": {
        "city": "ירושלים",
        "street": "הלני המלכה",
        "homeNumber": "5",
        "coordinates": [
          35.22107,
          31.781809
        ]
      }
    },
    {
      "name": "קפה קפה",
      "businessType": "establishment",
      "phone": "03-540-3451",
      "website": "http://www.cafecafe.co.il/",
      "address": {
        "city": "רמת השרון",
        "street": "שדרות ביאליק",
        "homeNumber": "42",
        "coordinates": [
          34.84365,
          32.144108
        ]
      }
    },
    {
      "name": "מנעולן בהרצליה פיתוח",
      "businessType": "locksmith",
      "phone": "072-259-1313",
      "website": "",
      "address": {
        "city": "הרצליה",
        "street": "בזל",
        "homeNumber": "38",
        "coordinates": [
          34.80918,
          32.177937
        ]
      }
    },
    {
      "name": "פורץ רמת גן 054-792-8251",
      "businessType": "locksmith",
      "phone": "055-228-8093",
      "website": "",
      "address": {
        "city": "רמת גן",
        "street": "טרומן",
        "homeNumber": "20",
        "coordinates": [
          34.82469,
          32.068184
        ]
      }
    },
    {
      "name": "ג'ויה הרצליה",
      "businessType": "restaurant",
      "phone": "09-956-6299",
      "website": "http://www.joya.co.il/he/pages/default.aspx?ContentID=26",
      "address": {
        "city": "הרצליה",
        "street": "אריה שנקר",
        "homeNumber": "9",
        "coordinates": [
          34.808704,
          32.158733
        ]
      }
    },
    {
      "name": "קפה גרג - רעננה",
      "businessType": "establishment",
      "phone": "09-748-0889",
      "website": "http://www.gregcafe.co.il/%D7%A8%D7%A2%D7%A0%D7%A0%D7%94",
      "address": {
        "city": "רעננה",
        "street": "",
        "homeNumber": "",
        "coordinates": [
          34.87811,
          32.197235
        ]
      }
    },
    {
      "name": "ברצלונה",
      "businessType": "restaurant",
      "phone": "09-955-4752",
      "website": "",
      "address": {
        "city": "הרצליה",
        "street": "משכית",
        "homeNumber": "32",
        "coordinates": [
          34.80984,
          32.162064
        ]
      }
    },
    {
      "name": "בנק אגוד",
      "businessType": "bank",
      "phone": "1599-599078",
      "website": "http://www.unionbank.co.il/538-1129-he/UnionBank.aspx#branches_details",
      "address": {
        "city": "ראש העין",
        "street": "המלאכה",
        "homeNumber": "22",
        "coordinates": [
          34.971684,
          32.106678
        ]
      }
    },
    {
      "name": "דירות ירדן ביץ'",
      "businessType": "real_estate_agency",
      "phone": "04-680-2323",
      "website": "http://www.yardenbeach.com/",
      "address": {
        "city": "",
        "street": "יונה הנביא",
        "homeNumber": "35",
        "coordinates": [
          34.76827,
          32.0722
        ]
      }
    },
    {
      "name": "ShemeshPhone",
      "businessType": "establishment",
      "phone": "02-999-1899",
      "website": "http://www.shemesh.co.il/",
      "address": {
        "city": "Ramat Bet Shemesh",
        "street": "",
        "homeNumber": "",
        "coordinates": [
          35.125317,
          31.767838
        ]
      }
    },
    {
      "name": "המשבעה",
      "businessType": "restaurant",
      "phone": "09-957-1434",
      "website": "",
      "address": {
        "city": "הרצליה",
        "street": "מדינת היהודים",
        "homeNumber": "60",
        "coordinates": [
          34.80957,
          32.166252
        ]
      }
    },
    {
      "name": "מתחם פז סנטר - יציב",
      "businessType": "shopping_mall",
      "phone": "050-583-4445",
      "website": "http://www.pazcenter.co.il/",
      "address": {
        "city": "גבעת שמואל",
        "street": "",
        "homeNumber": "",
        "coordinates": [
          34.84345,
          32.074375
        ]
      }
    },
    {
      "name": "ביסטרו קפה כזה",
      "businessType": "restaurant",
      "phone": "09-951-4848",
      "website": "",
      "address": {
        "city": "הרצליה",
        "street": "צמרות",
        "homeNumber": "2",
        "coordinates": [
          34.84382,
          32.151386
        ]
      }
    },
    {
      "name": "מנעולן גולד מנעולים",
      "businessType": "locksmith",
      "phone": "1-800-100-972",
      "website": "http://glock.co.il/",
      "address": {
        "city": "תל אביב יפו",
        "street": "הארד",
        "homeNumber": "7",
        "coordinates": [
          34.840656,
          32.111435
        ]
      }
    },
    {
      "name": "מרכז הלבשה",
      "businessType": "clothing_store",
      "phone": "052-343-6754",
      "website": "",
      "address": {
        "city": "רמת השרון",
        "street": "אוסישקין",
        "homeNumber": "39",
        "coordinates": [
          34.84289,
          32.141685
        ]
      }
    },
    {
      "name": "Tel Aviv Hotels Association",
      "businessType": "establishment",
      "phone": "03-517-0133",
      "website": "http://www.telavivhotels.org.il/",
      "address": {
        "city": "",
        "street": "המרד",
        "homeNumber": "29",
        "coordinates": [
          34.763638,
          32.0639
        ]
      }
    },
    {
      "name": "West Jerusalem",
      "businessType": "establishment",
      "phone": "02-623-6102",
      "website": "",
      "address": {
        "city": "Ιερουσαλήμ",
        "street": "יפו",
        "homeNumber": "44",
        "coordinates": [
          35.21971,
          31.78202
        ]
      }
    },
    {
      "name": "בנק אגוד",
      "businessType": "bank",
      "phone": "1599-599143",
      "website": "http://www.unionbank.co.il/523-1094-he/UnionBank.aspx#branches_details",
      "address": {
        "city": "אלעד",
        "street": "שמאי",
        "homeNumber": "1",
        "coordinates": [
          34.950523,
          32.050716
        ]
      }
    },
    {
      "name": "Radio EPGB",
      "businessType": "bar",
      "phone": "03-560-3636",
      "website": "",
      "address": {
        "city": "תל אביב יפו",
        "street": "",
        "homeNumber": "",
        "coordinates": [
          34.775055,
          32.063103
        ]
      }
    },
    {
      "name": "בית הקפה של גידי",
      "businessType": "cafe",
      "phone": "03-672-2172",
      "website": "",
      "address": {
        "city": "רמת גן",
        "street": "דרך בן גוריון",
        "homeNumber": "108",
        "coordinates": [
          34.821545,
          32.08412
        ]
      }
    },
    {
      "name": "בית האוכל קיבוץ עינת",
      "businessType": "store",
      "phone": "03-938-5122",
      "website": "http://www.einat.org.il/",
      "address": {
        "city": "עינת",
        "street": "",
        "homeNumber": "",
        "coordinates": [
          34.938282,
          32.082302
        ]
      }
    },
    {
      "name": "Central Hotel",
      "businessType": "lodging",
      "phone": "03-602-0122",
      "website": "http://centralhoteltelaviv.com/",
      "address": {
        "city": "תל אביב יפו",
        "street": "בן יהודה",
        "homeNumber": "38",
        "coordinates": [
          34.768433,
          32.076942
        ]
      }
    },
    {
      "name": "מלון סאן אביב",
      "businessType": "lodging",
      "phone": "03-517-4847",
      "website": "http://www.sun-aviv.co.il/",
      "address": {
        "city": "תל אביב יפו",
        "street": "",
        "homeNumber": "",
        "coordinates": [
          34.770035,
          32.064762
        ]
      }
    },
    {
      "name": "Shaul's",
      "businessType": "establishment",
      "phone": "02-625-6578",
      "website": "",
      "address": {
        "city": "ירושלים",
        "street": "בצלאל",
        "homeNumber": "2",
        "coordinates": [
          35.214462,
          31.780212
        ]
      }
    },
    {
      "name": "מתחם פז סנטר רונית הרצליה",
      "businessType": "shopping_mall",
      "phone": "050-654-2829",
      "website": "http://www.pazcenter.co.il/",
      "address": {
        "city": "הרצליה",
        "street": "",
        "homeNumber": "",
        "coordinates": [
          34.808174,
          32.15614
        ]
      }
    },
    {
      "name": "Mount of Olives Hotel",
      "businessType": "lodging",
      "phone": "02-628-4877",
      "website": "http://www.mtolives.com/",
      "address": {
        "city": "ירושלים",
        "street": "",
        "homeNumber": "",
        "coordinates": [
          35.245117,
          31.779062
        ]
      }
    },
    {
      "name": "בר ז'בוטינסקי מסעדות",
      "businessType": "bar",
      "phone": "02-624-4725",
      "website": "",
      "address": {
        "city": "ירושלים",
        "street": "",
        "homeNumber": "",
        "coordinates": [
          35.221073,
          31.779821
        ]
      }
    },
    {
      "name": "מסקל- Mezcal - Tequila y Cocina Mexicana",
      "businessType": "restaurant",
      "phone": "03-518-7925",
      "website": "",
      "address": {
        "city": "Tel Aviv תל-אביב",
        "street": "Vital St",
        "homeNumber": "2",
        "coordinates": [
          34.767742,
          32.056896
        ]
      }
    },
    {
      "name": "MASH Embassy",
      "businessType": "night_club",
      "phone": "03-605-1007",
      "website": "http://www.mash.co.il/",
      "address": {
        "city": "",
        "street": "הירקון",
        "homeNumber": "98",
        "coordinates": [
          34.767933,
          32.07891
        ]
      }
    },
    {
      "name": "Melody Hotel Tel Aviv",
      "businessType": "lodging",
      "phone": "03-542-5555",
      "website": "http://www.atlas.co.il/",
      "address": {
        "city": "",
        "street": "הירקון",
        "homeNumber": "220",
        "coordinates": [
          34.772324,
          32.08973
        ]
      }
    },
    {
      "name": "ארמון ים",
      "businessType": "lodging",
      "phone": "03-552-2424",
      "website": "http://www.armon-yam.co.il/",
      "address": {
        "city": "בת ים",
        "street": "דרך בן גוריון",
        "homeNumber": "95",
        "coordinates": [
          34.738983,
          32.01734
        ]
      }
    },
    {
      "name": "מלון פורט",
      "businessType": "lodging",
      "phone": "03-544-5544",
      "website": "http://www.porthoteltelaviv.com/",
      "address": {
        "city": "תל אביב יפו",
        "street": "ירמיהו",
        "homeNumber": "4",
        "coordinates": [
          34.77436,
          32.095203
        ]
      }
    },
    {
      "name": "Gazith Shoes",
      "businessType": "shoe_store",
      "phone": "03-525-3838",
      "website": "http://www.gazith-shoes.co.il/",
      "address": {
        "city": "תל אביב יפו",
        "street": "שיינקין",
        "homeNumber": "5",
        "coordinates": [
          34.771072,
          32.069866
        ]
      }
    },
    {
      "name": "אורי אלדר בשלן",
      "businessType": "restaurant",
      "phone": "09-741-1559",
      "website": "",
      "address": {
        "city": "רעננה",
        "street": "ארלוזורוב",
        "homeNumber": "4",
        "coordinates": [
          34.878708,
          32.17904
        ]
      }
    },
    {
      "name": "s-wear (היינס)",
      "businessType": "clothing_store",
      "phone": "074-755-8819",
      "website": "http://www.s-wear.com/",
      "address": {
        "city": "הרצליה",
        "street": "שדרות שבעת הכוכבים",
        "homeNumber": "8",
        "coordinates": [
          34.84297,
          32.161057
        ]
      }
    },
    {
      "name": "הודיס",
      "businessType": "clothing_store",
      "phone": "09-773-1977",
      "website": "",
      "address": {
        "city": "הרצליה",
        "street": "מדינת היהודים",
        "homeNumber": "85",
        "coordinates": [
          34.81016,
          32.166615
        ]
      }
    },
    {
      "name": "מנעולנים - מאיר פריצת מנעולים",
      "businessType": "locksmith",
      "phone": "054-433-5074",
      "website": "",
      "address": {
        "city": "הוד השרון",
        "street": "",
        "homeNumber": "",
        "coordinates": [
          34.876217,
          32.15699
        ]
      }
    },
    {
      "name": "בנק אגוד",
      "businessType": "bank",
      "phone": "1599-599074",
      "website": "http://www.unionbank.co.il/374-619-he/UnionBank.aspx#branches_details",
      "address": {
        "city": "ראשון לציון",
        "street": "משה לוי",
        "homeNumber": "11",
        "coordinates": [
          34.774063,
          31.989258
        ]
      }
    },
    {
      "name": "אינגה",
      "businessType": "bar",
      "phone": "09-951-0142",
      "website": "",
      "address": {
        "city": "הרצליה",
        "street": "גלגלי הפלדה",
        "homeNumber": "16",
        "coordinates": [
          34.80935,
          32.164764
        ]
      }
    },
    {
      "name": "סקיי",
      "businessType": "lodging",
      "phone": "03-620-0044",
      "website": "",
      "address": {
        "city": "תל אביב יפו",
        "street": "",
        "homeNumber": "",
        "coordinates": [
          34.768307,
          32.076664
        ]
      }
    },
    {
      "name": "עמי",
      "businessType": "lodging",
      "phone": "03-524-9141",
      "website": "",
      "address": {
        "city": "תל אביב יפו",
        "street": "",
        "homeNumber": "",
        "coordinates": [
          34.769894,
          32.084045
        ]
      }
    },
    {
      "name": "יהלום שיווק והפצה",
      "businessType": "shopping_mall",
      "phone": "03-930-0246",
      "website": "http://www.4545.co.il/",
      "address": {
        "city": "פתח תקווה",
        "street": "זאב אורלוב",
        "homeNumber": "104",
        "coordinates": [
          34.88885,
          32.094994
        ]
      }
    },
    {
      "name": "Insight",
      "businessType": "clothing_store",
      "phone": "03-540-2727",
      "website": "http://www.shpitz.net/",
      "address": {
        "city": "רמת שרון",
        "street": "",
        "homeNumber": "",
        "coordinates": [
          34.843243,
          32.141876
        ]
      }
    },
    {
      "name": "Zadig & Voltaire",
      "businessType": "establishment",
      "phone": "03-546-8855",
      "website": "http://www.zadig-et-voltaire.com/eu/en/eshop/",
      "address": {
        "city": "",
        "street": "",
        "homeNumber": "",
        "coordinates": [
          34.78177,
          32.0853
        ]
      }
    },
    {
      "name": "לה פסטה דלה קזה",
      "businessType": "restaurant",
      "phone": "09-743-0552",
      "website": "http://pastadellacasa.com/",
      "address": {
        "city": "",
        "street": "",
        "homeNumber": "",
        "coordinates": [
          34.8941,
          32.176243
        ]
      }
    },
    {
      "name": "קפה גרג - רמת החייל",
      "businessType": "establishment",
      "phone": "03-649-2926",
      "website": "",
      "address": {
        "city": "תל אביב יפו",
        "street": "הברזל",
        "homeNumber": "1",
        "coordinates": [
          34.834183,
          32.10668
        ]
      }
    },
    {
      "name": "מסעדת אוניון- Onion Restaurant",
      "businessType": "store",
      "phone": "09-773-2371",
      "website": "",
      "address": {
        "city": "הרצליה",
        "street": "שדרות שבעת הכוכבים",
        "homeNumber": "",
        "coordinates": [
          34.82495,
          32.16379
        ]
      }
    },
    {
      "name": "קפה אמילי Cafe Emily",
      "businessType": "cafe",
      "phone": "09-748-3302",
      "website": "",
      "address": {
        "city": "הוד השרון",
        "street": "סוקולוב",
        "homeNumber": "2",
        "coordinates": [
          34.9031,
          32.161118
        ]
      }
    },
    {
      "name": "Jerusalem Gate Hotel",
      "businessType": "lodging",
      "phone": "02-500-8500",
      "website": "http://www.jerusalemgatehotel.com/",
      "address": {
        "city": "Jeruzalem",
        "street": "ירמיהו",
        "homeNumber": "43",
        "coordinates": [
          35.200756,
          31.790342
        ]
      }
    },
    {
      "name": "מלון אמבסי תל אביב",
      "businessType": "lodging",
      "phone": "03-679-9999",
      "website": "http://www.sunhotel.co.il/",
      "address": {
        "city": "תל אביב יפו",
        "street": "הירקון",
        "homeNumber": "78",
        "coordinates": [
          34.767353,
          32.07674
        ]
      }
    },
    {
      "name": "מנעולן בתל אביב",
      "businessType": "locksmith",
      "phone": "03-522-8080",
      "website": "",
      "address": {
        "city": "תל אביב יפו",
        "street": "בן יהודה",
        "homeNumber": "100",
        "coordinates": [
          34.771355,
          32.08256
        ]
      }
    },
    {
      "name": "בר הצעצוע - The Toy Bar",
      "businessType": "night_club",
      "phone": "02-623-6666",
      "website": "http://www.thetoybar.com/",
      "address": {
        "city": "ירושלים",
        "street": "דו נואס",
        "homeNumber": "6",
        "coordinates": [
          35.220722,
          31.781782
        ]
      }
    },
    {
      "name": "Studio Katriz",
      "businessType": "shoe_store",
      "phone": "03-688-5528",
      "website": "http://www.studiokatriz.co.il/",
      "address": {
        "city": "תל אביב יפו",
        "street": "בני ברק",
        "homeNumber": "36",
        "coordinates": [
          34.781723,
          32.06046
        ]
      }
    },
    {
      "name": "לונדון קפה",
      "businessType": "cafe",
      "phone": "09-950-8628",
      "website": "",
      "address": {
        "city": "הרצליה",
        "street": "יורדי הים",
        "homeNumber": "1",
        "coordinates": [
          34.88142,
          32.14811
        ]
      }
    },
    {
      "name": "מקום בלב",
      "businessType": "restaurant",
      "phone": "09-774-1575",
      "website": "http://www.makombalev-raanana.co.il/",
      "address": {
        "city": "רעננה",
        "street": "פרדס משותף",
        "homeNumber": "5",
        "coordinates": [
          34.872757,
          32.173832
        ]
      }
    },
    {
      "name": "א.ד. מנעולים בע\"מ",
      "businessType": "locksmith",
      "phone": "09-742-5288",
      "website": "http://www.ad-locks.co.il/",
      "address": {
        "city": "הוד השרון",
        "street": "דרך רמתיים",
        "homeNumber": "68",
        "coordinates": [
          34.89431,
          32.156857
        ]
      }
    },
    {
      "name": "Tal Hotel Tel Aviv",
      "businessType": "lodging",
      "phone": "03-542-5555",
      "website": "http://www.atlas.co.il/",
      "address": {
        "city": "",
        "street": "הירקון",
        "homeNumber": "287",
        "coordinates": [
          34.77381,
          32.093967
        ]
      }
    },
    {
      "name": "קרלטון תל אביב",
      "businessType": "lodging",
      "phone": "03-520-1818",
      "website": "http://www.carlton.co.il/he/",
      "address": {
        "city": "תל אביב יפו",
        "street": "",
        "homeNumber": "",
        "coordinates": [
          34.769592,
          32.08652
        ]
      }
    },
    {
      "name": "Chamara",
      "businessType": "establishment",
      "phone": "03-522-6464",
      "website": "",
      "address": {
        "city": "",
        "street": "הירקון",
        "homeNumber": "87",
        "coordinates": [
          34.76735,
          32.077824
        ]
      }
    },
    {
      "name": "צ קידום וייעוץ בע\"מ",
      "businessType": "establishment",
      "phone": "052-846-5150",
      "website": "http://www.seowe.com/",
      "address": {
        "city": "תל אביב יפו",
        "street": "",
        "homeNumber": "",
        "coordinates": [
          34.77782,
          32.06616
        ]
      }
    },
    {
      "name": "מלון הפנורמה ירושלים",
      "businessType": "lodging",
      "phone": "02-628-4887",
      "website": "http://www.jerusalempanoramahotel.com/",
      "address": {
        "city": "ירושלים",
        "street": "",
        "homeNumber": "",
        "coordinates": [
          35.2439,
          31.77116
        ]
      }
    },
    {
      "name": "ERM Advanced Telematics",
      "businessType": "establishment",
      "phone": "03-941-3313",
      "website": "http://ermtelematics.com/",
      "address": {
        "city": "ראשון לציון",
        "street": "",
        "homeNumber": "",
        "coordinates": [
          34.755936,
          31.990324
        ]
      }
    },
    {
      "name": "לאורה סטודיו לטינו | Laura Studio Latino",
      "businessType": "night_club",
      "phone": "054-591-2169",
      "website": "http://www.studio-latino.co.il/",
      "address": {
        "city": "בית יהושע",
        "street": "החרוב",
        "homeNumber": "6",
        "coordinates": [
          34.868927,
          32.257286
        ]
      }
    },
    {
      "name": "מולי בלומס",
      "businessType": "bar",
      "phone": "03-522-1558",
      "website": "http://www.bloomsfamily.com/",
      "address": {
        "city": "תל אביב יפו",
        "street": "",
        "homeNumber": "",
        "coordinates": [
          34.768085,
          32.07908
        ]
      }
    },
    {
      "name": "פורום הרצליה",
      "businessType": "establishment",
      "phone": "09-954-2530",
      "website": "",
      "address": {
        "city": "הרצליה",
        "street": "",
        "homeNumber": "",
        "coordinates": [
          34.844677,
          32.16241
        ]
      }
    },
    {
      "name": "Sweet Girl Shoes",
      "businessType": "shoe_store",
      "phone": "03-603-7024",
      "website": "",
      "address": {
        "city": "פתח תקווה",
        "street": "דרך זאב ז'בוטינסקי",
        "homeNumber": "72",
        "coordinates": [
          34.865456,
          32.09258
        ]
      }
    },
    {
      "name": "מקסים",
      "businessType": "lodging",
      "phone": "03-517-3721",
      "website": "http://www.telavivmaxim.com/?lang=he",
      "address": {
        "city": "תל אביב יפו",
        "street": "",
        "homeNumber": "",
        "coordinates": [
          34.76758,
          32.077503
        ]
      }
    },
    {
      "name": "מלון רוטשילד",
      "businessType": "night_club",
      "phone": "03-957-8888",
      "website": "http://www.rothschild-hotel.co.il/",
      "address": {
        "city": "",
        "street": "שדרות רוטשילד",
        "homeNumber": "96",
        "coordinates": [
          34.778133,
          32.067303
        ]
      }
    },
    {
      "name": "אבי סער-מפתח לכל מנעול",
      "businessType": "locksmith",
      "phone": "03-648-1296",
      "website": "",
      "address": {
        "city": "תל אביב יפו",
        "street": "קהילת ורשה",
        "homeNumber": "54",
        "coordinates": [
          34.822395,
          32.110405
        ]
      }
    },
    {
      "name": "EndlessRoll",
      "businessType": "store",
      "phone": "077-466-0037",
      "website": "http://www.endlessroll.com/",
      "address": {
        "city": "",
        "street": "השלושה",
        "homeNumber": "2",
        "coordinates": [
          34.789055,
          32.061592
        ]
      }
    },
    {
      "name": "קפה 111",
      "businessType": "restaurant",
      "phone": "03-540-2227",
      "website": "http://www.cafe111.co.il/",
      "address": {
        "city": "רמת השרון",
        "street": "סוקולוב",
        "homeNumber": "111",
        "coordinates": [
          34.840122,
          32.149113
        ]
      }
    },
    {
      "name": "מנעולן ופורץ מפתח הקסם",
      "businessType": "locksmith",
      "phone": "052-309-1114",
      "website": "http://www.magickey.co.il/",
      "address": {
        "city": "פתח תקווה",
        "street": "משה סנה",
        "homeNumber": "35",
        "coordinates": [
          34.879845,
          32.10188
        ]
      }
    },
    {
      "name": "ריף הרצליה",
      "businessType": "establishment",
      "phone": "09-951-2472",
      "website": "",
      "address": {
        "city": "הרצליה",
        "street": "",
        "homeNumber": "",
        "coordinates": [
          34.844677,
          32.16241
        ]
      }
    },
    {
      "name": "ארומה",
      "businessType": "cafe",
      "phone": "09-950-2247",
      "website": "http://www.aroma.co.il/",
      "address": {
        "city": "הרצליה",
        "street": "",
        "homeNumber": "",
        "coordinates": [
          34.844677,
          32.16241
        ]
      }
    },
    {
      "name": "מנעולן במרינה בהרצליה",
      "businessType": "locksmith",
      "phone": "072-259-1211",
      "website": "",
      "address": {
        "city": "הרצליה",
        "street": "השונית",
        "homeNumber": "2",
        "coordinates": [
          34.79764,
          32.163746
        ]
      }
    },
    {
      "name": "אלי מנעולים ודלתות",
      "businessType": "locksmith",
      "phone": "057-244-8235",
      "website": "",
      "address": {
        "city": "פתח תקווה",
        "street": "השופר",
        "homeNumber": "31",
        "coordinates": [
          34.906765,
          32.080738
        ]
      }
    },
    {
      "name": "בשבילך",
      "businessType": "clothing_store",
      "phone": "02-652-6702",
      "website": "http://bishvilech.com/",
      "address": {
        "city": "ירושלים",
        "street": "שדרות הרצל",
        "homeNumber": "107",
        "coordinates": [
          35.188408,
          31.780493
        ]
      }
    },
    {
      "name": "Dizengoff Sea Residence",
      "businessType": "lodging",
      "phone": "03-527-2586",
      "website": "http://www.dizengoffsea.com/",
      "address": {
        "city": "",
        "street": "דיזנגוף",
        "homeNumber": "138",
        "coordinates": [
          34.773964,
          32.082256
        ]
      }
    },
    {
      "name": "מפתח בשרון",
      "businessType": "locksmith",
      "phone": "054-808-8308",
      "website": "http://www.handyshop.co.il/",
      "address": {
        "city": "כפר סבא",
        "street": "סוקולוב",
        "homeNumber": "3",
        "coordinates": [
          34.902706,
          32.17614
        ]
      }
    },
    {
      "name": "החומוסיה",
      "businessType": "restaurant",
      "phone": "03-540-3335",
      "website": "http://humusia.co.il/",
      "address": {
        "city": "רמת השרון",
        "street": "אוסישקין",
        "homeNumber": "9",
        "coordinates": [
          34.8417,
          32.138935
        ]
      }
    },
    {
      "name": "נעלי במבינו Bambino Shoes",
      "businessType": "shoe_store",
      "phone": "03-673-7817",
      "website": "http://www.bambinoshoes.co.il/",
      "address": {
        "city": "רמת גן",
        "street": "ביאליק",
        "homeNumber": "52",
        "coordinates": [
          34.813812,
          32.08424
        ]
      }
    },
    {
      "name": "קפה הלל גבעת שמואל",
      "businessType": "establishment",
      "phone": "03-532-9940",
      "website": "",
      "address": {
        "city": "גבעת שמואל",
        "street": "יוני נתניהו",
        "homeNumber": "29",
        "coordinates": [
          34.855003,
          32.077137
        ]
      }
    },
    {
      "name": "מסגרית משה ובניו",
      "businessType": "locksmith",
      "phone": "052-624-8042",
      "website": "http://www.metalworkshop.co.il/",
      "address": {
        "city": "פתח תקווה",
        "street": "אלכסנדר ינאי",
        "homeNumber": "13",
        "coordinates": [
          34.89723,
          32.10508
        ]
      }
    },
    {
      "name": "Extravaganza Night Club",
      "businessType": "night_club",
      "phone": "054-633-7436",
      "website": "https://www.facebook.com/extravaganza.telaviv",
      "address": {
        "city": "",
        "street": "אבן גבירול",
        "homeNumber": "30",
        "coordinates": [
          34.781673,
          32.074966
        ]
      }
    },
    {
      "name": "Al Shanti Gas STation محطة الشنطي للمحروقات",
      "businessType": "gas_station",
      "phone": "09-294-0012",
      "website": "",
      "address": {
        "city": "Qalqilyah - قلقيلية",
        "street": "",
        "homeNumber": "",
        "coordinates": [
          34.966125,
          32.191452
        ]
      }
    },
    {
      "name": "שלטים רמת גן",
      "businessType": "gas_station",
      "phone": "03-574-0151",
      "website": "http://www.srg-signs.co.il/",
      "address": {
        "city": "רמת גן",
        "street": "דרך זאב ז'בוטינסקי",
        "homeNumber": "78",
        "coordinates": [
          34.813457,
          32.087463
        ]
      }
    },
    {
      "name": "Dan Boutique Hotel Jerusalem",
      "businessType": "lodging",
      "phone": "03-520-2552",
      "website": "http://www.danhotels.com/JerusalemHotels/DanBoutiqueJerusalemHotel/",
      "address": {
        "city": "ירושלים",
        "street": "דרך חברון",
        "homeNumber": "31",
        "coordinates": [
          35.226265,
          31.766275
        ]
      }
    },
    {
      "name": "סוויטות איילנד",
      "businessType": "lodging",
      "phone": "077-266-6666",
      "website": "http://www.islandsuites.co.il/",
      "address": {
        "city": "נתניה",
        "street": "שדרות עובד בן עמי",
        "homeNumber": "10",
        "coordinates": [
          34.845284,
          32.311497
        ]
      }
    },
    {
      "name": "מלון אורכידאה אוקיינוס",
      "businessType": "lodging",
      "phone": "09-961-6222",
      "website": "http://www.orchidokeanos.co.il/",
      "address": {
        "city": "Herzeliya",
        "street": "רמת ים",
        "homeNumber": "50",
        "coordinates": [
          34.801075,
          32.172886
        ]
      }
    },
    {
      "name": "St George Hotel Jerusalem",
      "businessType": "lodging",
      "phone": "02-627-7232",
      "website": "http://www.stgeorgehoteljerusalem.com/",
      "address": {
        "city": "ירושלים",
        "street": "",
        "homeNumber": "",
        "coordinates": [
          35.230354,
          31.785791
        ]
      }
    },
    {
      "name": "מלון גרנד ביץ",
      "businessType": "lodging",
      "phone": "03-543-3333",
      "website": "http://www.grandhotels-israel.com/tel-aviv-hotels/grand-beach-tel-aviv-hotel",
      "address": {
        "city": "Tel Aviv",
        "street": "הירקון",
        "homeNumber": "250",
        "coordinates": [
          34.773224,
          32.092216
        ]
      }
    },
    {
      "name": "משו...טוב",
      "businessType": "restaurant",
      "phone": "09-956-6916",
      "website": "",
      "address": {
        "city": "הרצליה",
        "street": "שדרות בן גוריון",
        "homeNumber": "48",
        "coordinates": [
          34.842293,
          32.159077
        ]
      }
    },
    {
      "name": "מנעולן גיורא מנעולים ומפתחות",
      "businessType": "locksmith",
      "phone": "03-672-8311",
      "website": "http://daniel-lock.co.il/",
      "address": {
        "city": "רמת גן",
        "street": "ביאליק",
        "homeNumber": "18",
        "coordinates": [
          34.814987,
          32.080364
        ]
      }
    },
    {
      "name": "הגרה",
      "businessType": "clothing_store",
      "phone": "09-957-6674",
      "website": "",
      "address": {
        "city": "הרצליה",
        "street": "שדרות שבעת הכוכבים",
        "homeNumber": "8",
        "coordinates": [
          34.823586,
          32.165447
        ]
      }
    },
    {
      "name": "לוסקי",
      "businessType": "lodging",
      "phone": "03-516-3030",
      "website": "http://www.luskysuites-htl.co.il/",
      "address": {
        "city": "תל אביב יפו",
        "street": "",
        "homeNumber": "",
        "coordinates": [
          34.767487,
          32.077374
        ]
      }
    },
    {
      "name": "מנעולן ברמת השרון",
      "businessType": "locksmith",
      "phone": "072-259-1444",
      "website": "",
      "address": {
        "city": "רמת השרון",
        "street": "דרך ראשונים",
        "homeNumber": "32",
        "coordinates": [
          34.838345,
          32.13736
        ]
      }
    },
    {
      "name": "שכפול מפתח לרכב - מרכז המפתח CarKey",
      "businessType": "locksmith",
      "phone": "072-260-8047",
      "website": "http://www.carkey.co.il/",
      "address": {
        "city": "תל אביב יפו",
        "street": "סנהדרין",
        "homeNumber": "5",
        "coordinates": [
          34.797413,
          32.096085
        ]
      }
    },
    {
      "name": "עד העצם בע\"מ",
      "businessType": "restaurant",
      "phone": "09-950-3138",
      "website": "",
      "address": {
        "city": "הרצליה",
        "street": "",
        "homeNumber": "",
        "coordinates": [
          34.809048,
          32.162178
        ]
      }
    },
    {
      "name": "נאפה",
      "businessType": "shoe_store",
      "phone": "09-741-0830",
      "website": "http://www.nappa.co.il/",
      "address": {
        "city": "רעננה",
        "street": "אחוזה",
        "homeNumber": "148",
        "coordinates": [
          34.87099,
          32.181503
        ]
      }
    },
    {
      "name": "Aviv Taxis",
      "businessType": "establishment",
      "phone": "02-625-7366",
      "website": "",
      "address": {
        "city": "ירושלים",
        "street": "שמאי",
        "homeNumber": "12",
        "coordinates": [
          35.21867,
          31.781105
        ]
      }
    },
    {
      "name": "סושי בר בזל",
      "businessType": "bar",
      "phone": "03-547-7755",
      "website": "http://www.sushibarbazel.co.il/",
      "address": {
        "city": "רמת השרון",
        "street": "",
        "homeNumber": "",
        "coordinates": [
          34.83852,
          32.145084
        ]
      }
    },
    {
      "name": "לה מורס",
      "businessType": "establishment",
      "phone": "08-936-3634",
      "website": "",
      "address": {
        "city": "רחובות",
        "street": "הרצל",
        "homeNumber": "203",
        "coordinates": [
          34.808968,
          31.901337
        ]
      }
    },
    {
      "name": "New Life - Baby Products & Accessories",
      "businessType": "establishment",
      "phone": "052-482-4830",
      "website": "http://newlife-all4u.com/",
      "address": {
        "city": "בת ים",
        "street": "",
        "homeNumber": "",
        "coordinates": [
          34.74499,
          32.022903
        ]
      }
    },
    {
      "name": "הפורץ הנוצץ - שירותי פריצה ומנעולנות",
      "businessType": "locksmith",
      "phone": "09-774-7714",
      "website": "",
      "address": {
        "city": "רמת השרון",
        "street": "מעיין חרוד",
        "homeNumber": "12",
        "coordinates": [
          34.847946,
          32.147247
        ]
      }
    },
    {
      "name": "Khalifa Shoes",
      "businessType": "establishment",
      "phone": "02-625-7027",
      "website": "",
      "address": {
        "city": "",
        "street": "",
        "homeNumber": "",
        "coordinates": [
          34.74952,
          32.02592
        ]
      }
    },
    {
      "name": "קפה קפה",
      "businessType": "cafe",
      "phone": "03-696-3903",
      "website": "http://www.cafecafe.co.il/",
      "address": {
        "city": "הרצליה",
        "street": "ה' באייר",
        "homeNumber": "12",
        "coordinates": [
          34.842888,
          32.16965
        ]
      }
    },
    {
      "name": "Scoop",
      "businessType": "shoe_store",
      "phone": "03-529-2222",
      "website": "http://www.scoopshoes.co.il/",
      "address": {
        "city": "תל אביב יפו",
        "street": "גורדון",
        "homeNumber": "41",
        "coordinates": [
          34.773994,
          32.081844
        ]
      }
    },
    {
      "name": "מלון שדות, אסף הרופא",
      "businessType": "lodging",
      "phone": "08-919-9100",
      "website": "http://www.atlas.co.il/sadot-hotel-tel-aviv/",
      "address": {
        "city": "באר יעקב",
        "street": "",
        "homeNumber": "",
        "coordinates": [
          34.84002,
          31.96684
        ]
      }
    },
    {
      "name": "Beachfront Hotel",
      "businessType": "lodging",
      "phone": "03-744-0347",
      "website": "http://www.telavivbeachfront.co.il/",
      "address": {
        "city": "",
        "street": "רציף הרברט סמואל",
        "homeNumber": "78",
        "coordinates": [
          34.766075,
          32.075863
        ]
      }
    },
    {
      "name": "בנק אגוד",
      "businessType": "bank",
      "phone": "1599-599075",
      "website": "http://www.unionbank.co.il/541-2448-he/UnionBank.aspx#branches_details",
      "address": {
        "city": "רעננה",
        "street": "אחוזה",
        "homeNumber": "153",
        "coordinates": [
          34.870686,
          32.18125
        ]
      }
    },
    {
      "name": "Comme il Faut Caf?",
      "businessType": "cafe",
      "phone": "03-544-9211",
      "website": "https://www.lisadore.com/",
      "address": {
        "city": "",
        "street": "נמל תל אביב",
        "homeNumber": "26",
        "coordinates": [
          34.772964,
          32.095592
        ]
      }
    },
    {
      "name": "בנק אגוד",
      "businessType": "atm",
      "phone": "1599-599144",
      "website": "http://www.unionbank.co.il/534-1119-he/UnionBank.aspx#branches_details",
      "address": {
        "city": "קרית אונו",
        "street": "שלמה המלך",
        "homeNumber": "40",
        "coordinates": [
          34.86297,
          32.055134
        ]
      }
    },
    {
      "name": "נעלי אלינור",
      "businessType": "shoe_store",
      "phone": "03-683-1958",
      "website": "http://www.elinor-shoes.co.il/",
      "address": {
        "city": "תל אביב יפו",
        "street": "יפת",
        "homeNumber": "6",
        "coordinates": [
          34.755898,
          32.054432
        ]
      }
    },
    {
      "name": "חברת מרי נעליים (2002) בע\"מ",
      "businessType": "shoe_store",
      "phone": "03-527-2276",
      "website": "http://maryshoes.co.il/",
      "address": {
        "city": "תל אביב יפו",
        "street": "ה' באייר",
        "homeNumber": "6",
        "coordinates": [
          34.788292,
          32.086464
        ]
      }
    },
    {
      "name": "שלוותה",
      "businessType": "restaurant",
      "phone": "03-561-5979",
      "website": "",
      "address": {
        "city": "תל אביב יפו",
        "street": "",
        "homeNumber": "",
        "coordinates": [
          34.77782,
          32.06616
        ]
      }
    },
    {
      "name": "Clara Club",
      "businessType": "night_club",
      "phone": "054-740-6024",
      "website": "http://www.clara.co.il/",
      "address": {
        "city": "",
        "street": "",
        "homeNumber": "",
        "coordinates": [
          34.76185,
          32.067184
        ]
      }
    },
    {
      "name": "Yakir Ein Hod",
      "businessType": "lodging",
      "phone": "050-554-3982",
      "website": "http://www.yakireinhod.co.il/",
      "address": {
        "city": "עין הוד",
        "street": "",
        "homeNumber": "",
        "coordinates": [
          34.98562,
          32.697502
        ]
      }
    },
    {
      "name": "הדיסקוטק רמת ישי",
      "businessType": "night_club",
      "phone": "04-993-0874",
      "website": "http://discoteque.co.il/",
      "address": {
        "city": "רמת ישי",
        "street": "חורש האלונים",
        "homeNumber": "",
        "coordinates": [
          35.176388,
          32.70886
        ]
      }
    },
    {
      "name": "מלון מונטיפיורי",
      "businessType": "lodging",
      "phone": "02-622-1111",
      "website": "http://www.montefiorehotel.co.il/",
      "address": {
        "city": "ירושלים",
        "street": "ש\"ץ",
        "homeNumber": "7",
        "coordinates": [
          35.21504,
          31.779894
        ]
      }
    },
    {
      "name": "קפה ויולה",
      "businessType": "cafe",
      "phone": "03-571-4901",
      "website": "",
      "address": {
        "city": "גבעתיים",
        "street": "שיינקין",
        "homeNumber": "33",
        "coordinates": [
          34.8124,
          32.07472
        ]
      }
    },
    {
      "name": "מלון לאונרדו סיטי טאואר",
      "businessType": "lodging",
      "phone": "03-754-4444",
      "website": "http://www.fattal.co.il/leonardo-city-tower-tel-aviv-hotel",
      "address": {
        "city": "רמת גן",
        "street": "זיסמן שלום",
        "homeNumber": "14",
        "coordinates": [
          34.799515,
          32.084316
        ]
      }
    },
    {
      "name": "סיטי סנטר ירושלים",
      "businessType": "lodging",
      "phone": "02-650-9494",
      "website": "http://www.citycentervacation.com/",
      "address": {
        "city": "Ιερουσαλήμ",
        "street": "ההסתדרות",
        "homeNumber": "2",
        "coordinates": [
          35.21692,
          31.781925
        ]
      }
    },
    {
      "name": "Camper",
      "businessType": "establishment",
      "phone": "03-525-2111",
      "website": "",
      "address": {
        "city": "תל אביב יפו",
        "street": "שיינקין",
        "homeNumber": "44",
        "coordinates": [
          34.775078,
          32.06877
        ]
      }
    },
    {
      "name": "Move",
      "businessType": "establishment",
      "phone": "03-602-0426",
      "website": "",
      "address": {
        "city": "",
        "street": "",
        "homeNumber": "",
        "coordinates": [
          34.77782,
          32.06616
        ]
      }
    },
    {
      "name": "משיק סטיוארט ויצמן - נעלי מעצבים,תיקי אופנה ברמת אביב Machic Stuart Weitzman",
      "businessType": "shoe_store",
      "phone": "03-643-1263",
      "website": "",
      "address": {
        "city": "תל אביב יפו",
        "street": "אבא אחימאיר",
        "homeNumber": "27",
        "coordinates": [
          34.803963,
          32.125023
        ]
      }
    },
    {
      "name": "גיא מילר צילום",
      "businessType": "establishment",
      "phone": "054-750-7221",
      "website": "http://www.miller-g.com/",
      "address": {
        "city": "תל אביב יפו",
        "street": "אבן גבירול",
        "homeNumber": "180",
        "coordinates": [
          34.7834,
          32.093437
        ]
      }
    },
    {
      "name": "Leonardo Suite Tel-Aviv Bat Yam",
      "businessType": "lodging",
      "phone": "03-555-0555",
      "website": "http://www.fattal-hotels.com/tel-aviv-hotels/leonardo-suite-bat-yam",
      "address": {
        "city": "בת ים",
        "street": "",
        "homeNumber": "",
        "coordinates": [
          34.739513,
          32.016766
        ]
      }
    },
    {
      "name": "נימרוד",
      "businessType": "shoe_store",
      "phone": "1-700-704-033",
      "website": "http://www.nimrod.co.il/",
      "address": {
        "city": "הוד השרון",
        "street": "",
        "homeNumber": "",
        "coordinates": [
          34.90234,
          32.1333
        ]
      }
    },
    {
      "name": "Shamai Suites Hotel Jerusalem",
      "businessType": "lodging",
      "phone": "02-579-7705",
      "website": "http://www.shamaisuites.co.il/",
      "address": {
        "city": "ירושלים",
        "street": "בן הלל",
        "homeNumber": "15",
        "coordinates": [
          35.21789,
          31.781229
        ]
      }
    },
    {
      "name": "צ'אי בוטיק יד שניה",
      "businessType": "clothing_store",
      "phone": "09-746-7321",
      "website": "http://www.chai2hand.com/",
      "address": {
        "city": "רעננה",
        "street": "אחוזה",
        "homeNumber": "172",
        "coordinates": [
          34.8683,
          32.182037
        ]
      }
    },
    {
      "name": "Celio",
      "businessType": "clothing_store",
      "phone": "052-569-2531",
      "website": "",
      "address": {
        "city": "הרצליה",
        "street": "שדרות שבעת הכוכבים",
        "homeNumber": "8",
        "coordinates": [
          34.82431,
          32.165314
        ]
      }
    },
    {
      "name": "נורמה",
      "businessType": "restaurant",
      "phone": "09-958-3223",
      "website": "http://www.rest.co.il/sites/default.asp?txtRestID=5471",
      "address": {
        "city": "כפר שמריהו",
        "street": "הראשונים",
        "homeNumber": "1",
        "coordinates": [
          34.84159,
          32.168114
        ]
      }
    },
    {
      "name": "Beer Mayim Chaim Publishing",
      "businessType": "synagogue",
      "phone": "02-992-1218",
      "website": "http://www.chassidusonline.com/",
      "address": {
        "city": "Beit Shemesh, Israel",
        "street": "נחל אוריה",
        "homeNumber": "10",
        "coordinates": [
          34.991543,
          31.717506
        ]
      }
    },
    {
      "name": "מרינה תל אביב",
      "businessType": "lodging",
      "phone": "03-521-1777",
      "website": "http://www.marina-telaviv.co.il/",
      "address": {
        "city": "תל אביב יפו",
        "street": "",
        "homeNumber": "",
        "coordinates": [
          34.770233,
          32.08565
        ]
      }
    },
    {
      "name": "גורדון הוטל אנד לאונג'",
      "businessType": "lodging",
      "phone": "03-520-6100",
      "website": "http://www.gordontlv.com/",
      "address": {
        "city": "תל אביב יפו",
        "street": "",
        "homeNumber": "",
        "coordinates": [
          34.768932,
          32.08251
        ]
      }
    },
    {
      "name": "מכללת יפו",
      "businessType": "parking",
      "phone": "03-518-3971",
      "website": "http://www.cordelia.co.il/",
      "address": {
        "city": "תל אביב יפו",
        "street": "",
        "homeNumber": "",
        "coordinates": [
          34.760277,
          32.04697
        ]
      }
    },
    {
      "name": "Made in Israel",
      "businessType": "establishment",
      "phone": "052-783-2275",
      "website": "http://www.facebook.com/madeinisrael.turismo",
      "address": {
        "city": "ירושלים",
        "street": "המלך ג'ורג'",
        "homeNumber": "52",
        "coordinates": [
          35.216557,
          31.776743
        ]
      }
    },
    {
      "name": "ד'ה הום",
      "businessType": "lodging",
      "phone": "03-520-0800",
      "website": "http://www.thehome.co.il/",
      "address": {
        "city": "תל אביב יפו",
        "street": "",
        "homeNumber": "",
        "coordinates": [
          34.768356,
          32.079742
        ]
      }
    },
    {
      "name": "West Boutique Hotel Tel Aviv",
      "businessType": "establishment",
      "phone": "03-770-6666",
      "website": "http://english.tamareshotels.co.il/west-hotel.html",
      "address": {
        "city": "",
        "street": "",
        "homeNumber": "",
        "coordinates": [
          34.791893,
          32.13866
        ]
      }
    },
    {
      "name": "א.א.א לביטחון - מנעולים, פריצה, שכפול מפתחות",
      "businessType": "locksmith",
      "phone": "03-571-0519",
      "website": "http://www.aa-labitachon.co.il/",
      "address": {
        "city": "גבעתיים",
        "street": "כצנלסון",
        "homeNumber": "144",
        "coordinates": [
          34.81698,
          32.07555
        ]
      }
    },
    {
      "name": "Mike's Place",
      "businessType": "establishment",
      "phone": "052-267-0753",
      "website": "",
      "address": {
        "city": "",
        "street": "",
        "homeNumber": "",
        "coordinates": [
          34.747467,
          32.026043
        ]
      }
    },
    {
      "name": "מנעולן תל אביב יצאת צדיק",
      "businessType": "locksmith",
      "phone": "050-393-9319",
      "website": "http://www.manulan24-7.co.il/%D7%9E%D7%A0%D7%A2%D7%95%D7%9C%D7%9F-%D7%AA%D7%9C-%D7%90%D7%91%D7%99%D7%91/",
      "address": {
        "city": "תל אביב יפו",
        "street": "בזל",
        "homeNumber": "12",
        "coordinates": [
          34.776844,
          32.09019
        ]
      }
    },
    {
      "name": "סוויטס",
      "businessType": "lodging",
      "phone": "03-523-4363",
      "website": "http://www.dizengoffsuites.co.il/",
      "address": {
        "city": "תל אביב יפו",
        "street": "",
        "homeNumber": "",
        "coordinates": [
          34.773712,
          32.08189
        ]
      }
    },
    {
      "name": "The Varsano - Boutique Hotel, Tel Aviv (מלון ורסנו)",
      "businessType": "lodging",
      "phone": "077-554-5500",
      "website": "http://thevarsano.com/?utm_source=google_local&utm_medium=organic&utm_campaign=google_places",
      "address": {
        "city": "",
        "street": "שבזי",
        "homeNumber": "11",
        "coordinates": [
          34.76386,
          32.06157
        ]
      }
    },
    {
      "name": "קפה גרג - שבעת הכוכבים",
      "businessType": "cafe",
      "phone": "09-950-0569",
      "website": "http://www.gregcafe.co.il",
      "address": {
        "city": "הרצליה",
        "street": "",
        "homeNumber": "",
        "coordinates": [
          34.824062,
          32.16505
        ]
      }
    },
    {
      "name": "National Hotel Jerusalem",
      "businessType": "lodging",
      "phone": "02-627-8880",
      "website": "http://www.nationalhotel-jerusalem.com/",
      "address": {
        "city": "ירושלים",
        "street": "",
        "homeNumber": "",
        "coordinates": [
          35.231884,
          31.785894
        ]
      }
    },
    {
      "name": "רולדין רעננה",
      "businessType": "cafe",
      "phone": "09-748-6117",
      "website": "http://www.roladin.co.il/",
      "address": {
        "city": "רעננה",
        "street": "אחוזה",
        "homeNumber": "146",
        "coordinates": [
          34.87139,
          32.181435
        ]
      }
    },
    {
      "name": "ארמון הירקון",
      "businessType": "lodging",
      "phone": "03-605-5271",
      "website": "http://www.armon-hotel.com/",
      "address": {
        "city": "",
        "street": "הירקון",
        "homeNumber": "268",
        "coordinates": [
          34.77385,
          32.093876
        ]
      }
    },
    {
      "name": "קפה קפה כפר שמריהו",
      "businessType": "cafe",
      "phone": "09-950-9040",
      "website": "",
      "address": {
        "city": "כפר שמריהו",
        "street": "המעפילים",
        "homeNumber": "11",
        "coordinates": [
          34.818745,
          32.179646
        ]
      }
    },
    {
      "name": "אפנת נעלי נעורים בע\"מ",
      "businessType": "shoe_store",
      "phone": "03-505-2769",
      "website": "http://www.neurimshoes.co.il/",
      "address": {
        "city": "חולון",
        "street": "אריה שנקר",
        "homeNumber": "52",
        "coordinates": [
          34.776005,
          32.021492
        ]
      }
    },
    {
      "name": "פולגת",
      "businessType": "clothing_store",
      "phone": "09-954-1677",
      "website": "http://www.golfco.co.il/category/polgat",
      "address": {
        "city": "הרצליה",
        "street": "",
        "homeNumber": "",
        "coordinates": [
          34.82428,
          32.165173
        ]
      }
    },
    {
      "name": "Joey's Bar",
      "businessType": "establishment",
      "phone": "03-517-9277",
      "website": "",
      "address": {
        "city": "תל אביב יפו",
        "street": "אלנבי",
        "homeNumber": "42",
        "coordinates": [
          34.768925,
          32.072357
        ]
      }
    },
    {
      "name": "אנינה",
      "businessType": "restaurant",
      "phone": "03-641-2288",
      "website": "",
      "address": {
        "city": "תל אביב יפו",
        "street": "חיים לבנון",
        "homeNumber": "2",
        "coordinates": [
          34.7948,
          32.102955
        ]
      }
    },
    {
      "name": "מגדל האופרה",
      "businessType": "shopping_mall",
      "phone": "03-510-7496",
      "website": "",
      "address": {
        "city": "תל אביב יפו",
        "street": "",
        "homeNumber": "",
        "coordinates": [
          34.765816,
          32.073925
        ]
      }
    },
    {
      "name": "American Eagle Outfitters",
      "businessType": "clothing_store",
      "phone": "09-886-6280",
      "website": "",
      "address": {
        "city": "הרצליה",
        "street": "שדרות שבעת הכוכבים",
        "homeNumber": "8",
        "coordinates": [
          34.823875,
          32.165703
        ]
      }
    },
    {
      "name": "בנק אגוד",
      "businessType": "bank",
      "phone": "1599-599093",
      "website": "http://www.unionbank.co.il/539-1131-he/UnionBank.aspx#branches_details",
      "address": {
        "city": "רחובות",
        "street": "אחד העם",
        "homeNumber": "1",
        "coordinates": [
          34.81217,
          31.896093
        ]
      }
    },
    {
      "name": "אברהם הוסטל ירושלים",
      "businessType": "lodging",
      "phone": "02-650-2200",
      "website": "https://abrahamhostels.com/jerusalem/he/",
      "address": {
        "city": "ירושלים",
        "street": "",
        "homeNumber": "",
        "coordinates": [
          35.21564,
          31.784855
        ]
      }
    },
    {
      "name": "מרתון ספורט",
      "businessType": "store",
      "phone": "077-330-1484",
      "website": "http://www.runners.co.il/",
      "address": {
        "city": "חיפה",
        "street": "",
        "homeNumber": "",
        "coordinates": [
          34.96798,
          32.788033
        ]
      }
    },
    {
      "name": "קפה משורר",
      "businessType": "establishment",
      "phone": "03-547-4828",
      "website": "",
      "address": {
        "city": "",
        "street": "",
        "homeNumber": "",
        "coordinates": [
          34.839005,
          32.146942
        ]
      }
    },
    {
      "name": "Zehava Argi Make-up Artist",
      "businessType": "beauty_salon",
      "phone": "052-469-7986",
      "website": "http://www.facebook.com/zehava038?ref=tn_tnmn",
      "address": {
        "city": "רמת גן",
        "street": "התפוצות",
        "homeNumber": "60",
        "coordinates": [
          34.8381,
          32.067165
        ]
      }
    },
    {
      "name": "ניו באלאנס- חנות המפעל",
      "businessType": "shoe_store",
      "phone": "03-682-0275",
      "website": "http://www.newbalance.co.il/",
      "address": {
        "city": "תל אביב יפו",
        "street": "המפעל",
        "homeNumber": "3",
        "coordinates": [
          34.77333,
          32.05152
        ]
      }
    },
    {
      "name": "Harmony Hotel Jerusalem",
      "businessType": "lodging",
      "phone": "03-542-5555",
      "website": "http://www.atlas.co.il/harmony-hotel-jerusalem/",
      "address": {
        "city": "ירושלים",
        "street": "יואל משה סלומון",
        "homeNumber": "6",
        "coordinates": [
          35.219055,
          31.781097
        ]
      }
    },
    {
      "name": "BoBo",
      "businessType": "clothing_store",
      "phone": "054-885-3018",
      "website": "http://facebook.com/bobo.tlv",
      "address": {
        "city": "Tel Aviv jafo",
        "street": "רבי פנחס",
        "homeNumber": "12",
        "coordinates": [
          34.75587,
          32.052776
        ]
      }
    },
    {
      "name": "Villa Sokolov",
      "businessType": "night_club",
      "phone": "054-633-7436",
      "website": "https://www.facebook.com/VilaSokolov",
      "address": {
        "city": "",
        "street": "אליעזר קפלן",
        "homeNumber": "4",
        "coordinates": [
          34.78253,
          32.073303
        ]
      }
    },
    {
      "name": "אחוזת הספא",
      "businessType": "establishment",
      "phone": "08-947-8800",
      "website": "http://www.hspa.co.il/",
      "address": {
        "city": "רחובות",
        "street": "משה יתום",
        "homeNumber": "38",
        "coordinates": [
          34.7882,
          31.89063
        ]
      }
    },
    {
      "name": "מלון מטרופוליטן",
      "businessType": "lodging",
      "phone": "03-519-2727",
      "website": "http://www.hotelmetropolitan.co.il/",
      "address": {
        "city": "תל אביב יפו",
        "street": "",
        "homeNumber": "",
        "coordinates": [
          34.76748,
          32.075672
        ]
      }
    },
    {
      "name": "בנק אגוד",
      "businessType": "bank",
      "phone": "1599-599146",
      "website": "http://www.unionbank.co.il/537-1126-he/UnionBank.aspx#branches_details",
      "address": {
        "city": "קרית גת",
        "street": "שדרות מלכי ישראל",
        "homeNumber": "178",
        "coordinates": [
          34.759052,
          31.603603
        ]
      }
    },
    {
      "name": "JUNTA77",
      "businessType": "night_club",
      "phone": "054-247-1473",
      "website": "http://www.rol.co.il/sites/junta-77/",
      "address": {
        "city": "",
        "street": "בן יהודה",
        "homeNumber": "77",
        "coordinates": [
          34.770466,
          32.08131
        ]
      }
    },
    {
      "name": "מנעולן בני ברק",
      "businessType": "locksmith",
      "phone": "072-259-1888",
      "website": "",
      "address": {
        "city": "בני ברק",
        "street": "רבי עקיבא",
        "homeNumber": "116",
        "coordinates": [
          34.83428,
          32.085747
        ]
      }
    },
    {
      "name": "אדאמס הקול החדש",
      "businessType": "restaurant",
      "phone": "09-957-1165",
      "website": "",
      "address": {
        "city": "הרצליה",
        "street": "יוחנן הסנדלר",
        "homeNumber": "1",
        "coordinates": [
          34.809242,
          32.164257
        ]
      }
    },
    {
      "name": "גורדון אין",
      "businessType": "lodging",
      "phone": "03-523-8239",
      "website": "http://www.hostelstelaviv.com/",
      "address": {
        "city": "תל אביב יפו",
        "street": "",
        "homeNumber": "",
        "coordinates": [
          34.771374,
          32.082382
        ]
      }
    },
    {
      "name": "סוויטות ליבר חוף הים תל אביב",
      "businessType": "lodging",
      "phone": "03-510-2310",
      "website": "http://www.telavivapartmentrental.com/6-alenby",
      "address": {
        "city": "",
        "street": "יונה הנביא",
        "homeNumber": "5",
        "coordinates": [
          34.765415,
          32.073013
        ]
      }
    },
    {
      "name": "ד\"ר הלל דיוויס - פסיכיאטר",
      "businessType": "doctor",
      "phone": "052-384-6793",
      "website": "http://www.refua.info/siteFiles/1/3623/9197.asp?category_id=2504&category_type=18'",
      "address": {
        "city": "ירושלים",
        "street": "המליץ",
        "homeNumber": "5",
        "coordinates": [
          35.21946,
          31.76444
        ]
      }
    },
    {
      "name": "BW - BISTRO WINE",
      "businessType": "bar",
      "phone": "09-951-4509",
      "website": "",
      "address": {
        "city": "Herzlyia Pituach",
        "street": "אריה שנקר",
        "homeNumber": "14",
        "coordinates": [
          34.808544,
          32.158867
        ]
      }
    },
    {
      "name": "קפה לואיז",
      "businessType": "restaurant",
      "phone": "03-649-2000",
      "website": "http://www.cafelouise.co.il/",
      "address": {
        "city": "תל אביב יפו",
        "street": "הרוגי מלכות",
        "homeNumber": "11",
        "coordinates": [
          34.833454,
          32.10909
        ]
      }
    },
    {
      "name": "ירמיהו",
      "businessType": "gas_station",
      "phone": "054-671-4100",
      "website": "",
      "address": {
        "city": "תל אביב יפו",
        "street": "",
        "homeNumber": "",
        "coordinates": [
          34.77499,
          32.095127
        ]
      }
    },
    {
      "name": "The Locksmith - מנעולן בתל אביב",
      "businessType": "locksmith",
      "phone": "054-733-3562",
      "website": "http://eyalfatran.wix.com/thelocksmith",
      "address": {
        "city": "תל אביב יפו",
        "street": "מבצע קדש",
        "homeNumber": "6",
        "coordinates": [
          34.812794,
          32.11365
        ]
      }
    },
    {
      "name": "Golan Tambor",
      "businessType": "establishment",
      "phone": "054-454-9472",
      "website": "",
      "address": {
        "city": "",
        "street": "הר נבו",
        "homeNumber": "2",
        "coordinates": [
          34.781425,
          32.088753
        ]
      }
    },
    {
      "name": "בטס ווסטרן ריג'נסי סוויטס",
      "businessType": "lodging",
      "phone": "03-517-3939",
      "website": "http://www.regencysuiteshotelaviv.com/hebrew.asp",
      "address": {
        "city": "תל אביב יפו",
        "street": "",
        "homeNumber": "",
        "coordinates": [
          34.767467,
          32.07702
        ]
      }
    },
    {
      "name": "גיא מילר צילום",
      "businessType": "establishment",
      "phone": "054-750-7221",
      "website": "http://www.guymiller.co.il/",
      "address": {
        "city": "תל אביב יפו",
        "street": "אבן גבירול",
        "homeNumber": "180",
        "coordinates": [
          34.783318,
          32.09347
        ]
      }
    },
    {
      "name": "שיין",
      "businessType": "food",
      "phone": "03-527-6186",
      "website": "",
      "address": {
        "city": "תל אביב יפו",
        "street": "",
        "homeNumber": "",
        "coordinates": [
          34.77719,
          32.079433
        ]
      }
    },
    {
      "name": "קפה אוסישקין",
      "businessType": "establishment",
      "phone": "03-547-0768",
      "website": "",
      "address": {
        "city": "רמת השרון",
        "street": "אוסישקין",
        "homeNumber": "57",
        "coordinates": [
          34.84354,
          32.14316
        ]
      }
    },
    {
      "name": "מלון גולדן בי'ץ תל אביב בע\"מ",
      "businessType": "establishment",
      "phone": "03-516-2727",
      "website": "",
      "address": {
        "city": "תל אביב יפו",
        "street": "אלנבי",
        "homeNumber": "2",
        "coordinates": [
          34.76535,
          32.073647
        ]
      }
    },
    {
      "name": "קלאודיה",
      "businessType": "clothing_store",
      "phone": "09-950-3384",
      "website": "",
      "address": {
        "city": "הרצליה",
        "street": "",
        "homeNumber": "",
        "coordinates": [
          34.823925,
          32.1652
        ]
      }
    },
    {
      "name": "מלון קראון פלזה סיטי סנטר תל אביב",
      "businessType": "lodging",
      "phone": "03-777-4000",
      "website": "http://www.h-i.co.il/hotels/crowne-plaza-tel-aviv-city-center/",
      "address": {
        "city": "תל אביב יפו",
        "street": "מנחם בגין",
        "homeNumber": "136",
        "coordinates": [
          34.79228,
          32.07456
        ]
      }
    },
    {
      "name": "Bluma",
      "businessType": "clothing_store",
      "phone": "03-540-9098",
      "website": "",
      "address": {
        "city": "רמת השרון",
        "street": "אוסישקין",
        "homeNumber": "61",
        "coordinates": [
          34.843727,
          32.14357
        ]
      }
    },
    {
      "name": "מקס מורטי",
      "businessType": "shoe_store",
      "phone": "04-812-0101",
      "website": "http://www.golfco.co.il/category/max_moretti",
      "address": {
        "city": "חיפה",
        "street": "",
        "homeNumber": "",
        "coordinates": [
          35.008793,
          32.78981
        ]
      }
    },
    {
      "name": "בנק אגוד",
      "businessType": "bank",
      "phone": "1599-599072",
      "website": "http://www.unionbank.co.il/530-1109-he/UnionBank.aspx#branches_details",
      "address": {
        "city": "הרצליה",
        "street": "סוקולוב",
        "homeNumber": "38",
        "coordinates": [
          34.8447,
          32.167076
        ]
      }
    },
    {
      "name": "שניצל",
      "businessType": "restaurant",
      "phone": "09-955-0552",
      "website": "",
      "address": {
        "city": "הרצליה",
        "street": "מדינת היהודים",
        "homeNumber": "85",
        "coordinates": [
          34.81074,
          32.16744
        ]
      }
    },
    {
      "name": "פאר המנעולים בע\"מ",
      "businessType": "locksmith",
      "phone": "03-921-9988",
      "website": "http://peerlocks.com/",
      "address": {
        "city": "פתח תקווה",
        "street": "אריה שנקר",
        "homeNumber": "2",
        "coordinates": [
          34.854424,
          32.093258
        ]
      }
    },
    {
      "name": "Credit Suisse Financial Services (Israel) Ltd.",
      "businessType": "establishment",
      "phone": "03-693-6300",
      "website": "http://www.credit-suisse.com/il/en/",
      "address": {
        "city": "",
        "street": "",
        "homeNumber": "",
        "coordinates": [
          34.848633,
          32.063957
        ]
      }
    },
    {
      "name": "New Palm Hotel",
      "businessType": "lodging",
      "phone": "02-627-3189",
      "website": "",
      "address": {
        "city": "ירושלים",
        "street": "נעמי קיס",
        "homeNumber": "4",
        "coordinates": [
          35.22825,
          31.78512
        ]
      }
    },
    {
      "name": "מנעולן שלי - בני הירש",
      "businessType": "locksmith",
      "phone": "054-324-7991",
      "website": "http://www.tovtoda.co.il/BusinessPage.aspx?b=3100",
      "address": {
        "city": "תל אביב יפו",
        "street": "קהילת ורשה",
        "homeNumber": "71",
        "coordinates": [
          34.82242,
          32.10999
        ]
      }
    },
    {
      "name": "Terrasa",
      "businessType": "restaurant",
      "phone": "09-959-7107",
      "website": "",
      "address": {
        "city": "הרצליה",
        "street": "",
        "homeNumber": "",
        "coordinates": [
          34.844673,
          32.162415
        ]
      }
    },
    {
      "name": "Cinema - An Atlas Boutique Hotel",
      "businessType": "establishment",
      "phone": "03-520-7100",
      "website": "http://www.atlas.co.il/",
      "address": {
        "city": "",
        "street": "זמנהוף",
        "homeNumber": "1",
        "coordinates": [
          34.774822,
          32.077793
        ]
      }
    },
    {
      "name": "בנק אגוד",
      "businessType": "bank",
      "phone": "1599-599062",
      "website": "http://www.unionbank.co.il/540-3112-he/UnionBank.aspx#branches_details",
      "address": {
        "city": "רמת גן",
        "street": "דרך זאב ז'בוטינסקי",
        "homeNumber": "1",
        "coordinates": [
          34.8002,
          32.083
        ]
      }
    },
    {
      "name": "Sea Breeze Spa & Bar",
      "businessType": "establishment",
      "phone": "03-524-4214",
      "website": "",
      "address": {
        "city": "",
        "street": "",
        "homeNumber": "",
        "coordinates": [
          34.77782,
          32.06616
        ]
      }
    },
    {
      "name": "Hotel Residence Netanya",
      "businessType": "establishment",
      "phone": "09-830-1110",
      "website": "http://www.zyvotel.com/Residence_Hotel",
      "address": {
        "city": "נתניה",
        "street": "גד מכנס",
        "homeNumber": "18",
        "coordinates": [
          34.849396,
          32.3278
        ]
      }
    },
    {
      "name": "בנק אגוד",
      "businessType": "bank",
      "phone": "1599-599156",
      "website": "http://www.unionbank.co.il/536-3013-he/UnionBank.aspx#branches_details",
      "address": {
        "city": "פתח תקווה",
        "street": "היבנר",
        "homeNumber": "29",
        "coordinates": [
          34.875435,
          32.08083
        ]
      }
    },
    {
      "name": "בנק אגוד",
      "businessType": "bank",
      "phone": "1599-599076",
      "website": "http://www.unionbank.co.il/536-3115-he/UnionBank.aspx#branches_details",
      "address": {
        "city": "פתח תקווה",
        "street": "משה דיין",
        "homeNumber": "14",
        "coordinates": [
          34.862106,
          32.094772
        ]
      }
    },
    {
      "name": "פיצה סלסטה",
      "businessType": "restaurant",
      "phone": "077-456-6035",
      "website": "",
      "address": {
        "city": "רמת השרון",
        "street": "סוקולוב",
        "homeNumber": "57",
        "coordinates": [
          34.83801,
          32.144432
        ]
      }
    },
    {
      "name": "ARTHUR",
      "businessType": "restaurant",
      "phone": "09-950-7887",
      "website": "",
      "address": {
        "city": "הרצליה",
        "street": "משכית",
        "homeNumber": "15",
        "coordinates": [
          34.811493,
          32.164806
        ]
      }
    },
    {
      "name": "ביתא בית קפה בע\"מ",
      "businessType": "restaurant",
      "phone": "03-641-2285",
      "website": "",
      "address": {
        "city": "תל אביב יפו",
        "street": "ברודצקי",
        "homeNumber": "17",
        "coordinates": [
          34.797943,
          32.107365
        ]
      }
    },
    {
      "name": "קלאסיק - התקנת דלתות פלדה",
      "businessType": "store",
      "phone": "054-533-8587",
      "website": "http://www.doors-locks.net/",
      "address": {
        "city": "פתח תקווה",
        "street": "הרצל",
        "homeNumber": "88",
        "coordinates": [
          34.89339,
          32.085735
        ]
      }
    },
    {
      "name": "אלי-אור הספקה טכנית",
      "businessType": "locksmith",
      "phone": "052-280-0600",
      "website": "http://eli-or.forumhe.com/",
      "address": {
        "city": "פתח תקווה",
        "street": "יהושע שטמפפר",
        "homeNumber": "28",
        "coordinates": [
          34.887646,
          32.09129
        ]
      }
    },
    {
      "name": "מלון בוטיק עדן",
      "businessType": "lodging",
      "phone": "03-545-5900",
      "website": "http://www.edenhousetlv.com/%D7%97%D7%93%D7%A8%D7%99%D7%9D-%D7%95%D7%A1%D7%95%D7%95%D7%99%D7%98%D7%95%D7%AA/%D7%9E%D7%9C%D7%95%D7%9F-%D7%91%D7%95%D7%98%D7%99%D7%A7-%D7%A2%D7%93%D7%9F/",
      "address": {
        "city": "תל אביב יפו",
        "street": "ישכון",
        "homeNumber": "11",
        "coordinates": [
          34.76678,
          32.069458
        ]
      }
    },
    {
      "name": "אחים איזנברג בע\"מ",
      "businessType": "establishment",
      "phone": "03-977-7000",
      "website": "http://www.eisenbros.co.il/",
      "address": {
        "city": "Ben-Gurion-Airport",
        "street": "",
        "homeNumber": "",
        "coordinates": [
          34.910183,
          31.987509
        ]
      }
    },
    {
      "name": "קפה קפה",
      "businessType": "establishment",
      "phone": "09-958-9671",
      "website": "http://www.cafecafe.co.il/",
      "address": {
        "city": "הרצליה",
        "street": "המנופים",
        "homeNumber": "8",
        "coordinates": [
          34.80714,
          32.159912
        ]
      }
    },
    {
      "name": "Enigma Boutique",
      "businessType": "shoe_store",
      "phone": "03-609-0248",
      "website": "http://www.enigma-boutique.com/",
      "address": {
        "city": "",
        "street": "ה' באייר",
        "homeNumber": "34",
        "coordinates": [
          34.791157,
          32.086132
        ]
      }
    },
    {
      "name": "Holiday Raanana",
      "businessType": "real_estate_agency",
      "phone": "054-768-8083",
      "website": "http://www.holiday-raanana.com/",
      "address": {
        "city": "רעננה",
        "street": "עקיבא",
        "homeNumber": "2",
        "coordinates": [
          34.88033,
          32.179413
        ]
      }
    },
    {
      "name": "בנק אגוד",
      "businessType": "bank",
      "phone": "1599-599192",
      "website": "http://www.unionbank.co.il/525-1098-he/UnionBank.aspx#branches_details",
      "address": {
        "city": "אשקלון",
        "street": "הגדוד העברי",
        "homeNumber": "10",
        "coordinates": [
          34.585976,
          31.665041
        ]
      }
    },
    {
      "name": "קפה קפה כפר סבא",
      "businessType": "food",
      "phone": "09-792-0573",
      "website": "http://cafecafe.co.il/he/company/branchies/branch/?ContentID=189",
      "address": {
        "city": "כפר סבא",
        "street": "דוד אלעזר",
        "homeNumber": "8",
        "coordinates": [
          34.905888,
          32.17832
        ]
      }
    },
    {
      "name": "דירות ירדן סי סייד , בן יהודה 130 , תל אביב",
      "businessType": "lodging",
      "phone": "04-680-2323",
      "website": "http://yardenseaside.com/",
      "address": {
        "city": "תל אביב יפו",
        "street": "בן יהודה",
        "homeNumber": "130",
        "coordinates": [
          34.772568,
          32.08493
        ]
      }
    },
    {
      "name": "Nanutchka",
      "businessType": "establishment",
      "phone": "03-516-2254",
      "website": "",
      "address": {
        "city": "",
        "street": "לילינבלום",
        "homeNumber": "28",
        "coordinates": [
          34.770393,
          32.06214
        ]
      }
    },
    {
      "name": "ללין",
      "businessType": "clothing_store",
      "phone": "054-334-5011",
      "website": "http://www.laline.co.il/",
      "address": {
        "city": "הרצליה",
        "street": "שדרות שבעת הכוכבים",
        "homeNumber": "8",
        "coordinates": [
          34.823948,
          32.16534
        ]
      }
    },
    {
      "name": "בנתוש",
      "businessType": "clothing_store",
      "phone": "054-432-7123",
      "website": "",
      "address": {
        "city": "רמת השרון",
        "street": "נחל בשור",
        "homeNumber": "7",
        "coordinates": [
          34.842537,
          32.14088
        ]
      }
    },
    {
      "name": "קולומבוס הכשרה בע\"מ",
      "businessType": "restaurant",
      "phone": "09-958-9880",
      "website": "",
      "address": {
        "city": "הרצליה",
        "street": "שדרות אבא אבן",
        "homeNumber": "4",
        "coordinates": [
          34.809784,
          32.16117
        ]
      }
    },
    {
      "name": "בנק אגוד",
      "businessType": "atm",
      "phone": "1599-599052",
      "website": "http://www.unionbank.co.il/307-613-he/UnionBank.aspx#branches_details",
      "address": {
        "city": "ירושלים",
        "street": "מלכי ישראל",
        "homeNumber": "47",
        "coordinates": [
          35.215088,
          31.789173
        ]
      }
    },
    {
      "name": "גלי מנעולים",
      "businessType": "locksmith",
      "phone": "050-362-6718",
      "website": "",
      "address": {
        "city": "צופית",
        "street": "השדרה",
        "homeNumber": "",
        "coordinates": [
          34.923126,
          32.190983
        ]
      }
    },
    {
      "name": "Pasternak Shoam Investment House",
      "businessType": "finance",
      "phone": "074-701-8238",
      "website": "http://www.ps-invest.co.il/",
      "address": {
        "city": "",
        "street": "אחד העם",
        "homeNumber": "27",
        "coordinates": [
          34.77322,
          32.064503
        ]
      }
    },
    {
      "name": "שכפול שלט לשער חשמלי - סופר שלטים",
      "businessType": "store",
      "phone": "072-260-8045",
      "website": "http://www.shaarim.co.il/",
      "address": {
        "city": "תל אביב יפו",
        "street": "עליית הנוער",
        "homeNumber": "42",
        "coordinates": [
          34.80066,
          32.07338
        ]
      }
    },
    {
      "name": "דירות בן יהודה",
      "businessType": "lodging",
      "phone": "03-522-9393",
      "website": "http://www.byapartments.co.il/",
      "address": {
        "city": "תל אביב יפו",
        "street": "",
        "homeNumber": "",
        "coordinates": [
          34.77257,
          32.08602
        ]
      }
    },
    {
      "name": "מלון ארטפלוס",
      "businessType": "lodging",
      "phone": "03-542-5555",
      "website": "http://www.atlas.co.il/art-hotel-tel-aviv/",
      "address": {
        "city": "תל אביב יפו",
        "street": "בן יהודה",
        "homeNumber": "35",
        "coordinates": [
          34.76831,
          32.077206
        ]
      }
    },
    {
      "name": "סאפיו מחקר ופיתוח",
      "businessType": "establishment",
      "phone": "03-602-4443",
      "website": "http://www.sapio.co.il/",
      "address": {
        "city": "בני ברק",
        "street": "לח\"י",
        "homeNumber": "25",
        "coordinates": [
          34.83348,
          32.103584
        ]
      }
    },
    {
      "name": "נעלי טיב טוב",
      "businessType": "shoe_store",
      "phone": "050-529-7384",
      "website": "http://www.dr-flex.com/",
      "address": {
        "city": "רמת גן",
        "street": "ביאליק",
        "homeNumber": "4",
        "coordinates": [
          34.814903,
          32.078842
        ]
      }
    },
    {
      "name": "אדר סוויטס",
      "businessType": "lodging",
      "phone": "02-626-3111",
      "website": "",
      "address": {
        "city": "ירושלים",
        "street": "",
        "homeNumber": "",
        "coordinates": [
          35.228745,
          31.789415
        ]
      }
    },
    {
      "name": "מלון מקסים תא בע\"מ",
      "businessType": "establishment",
      "phone": "03-517-3721",
      "website": "",
      "address": {
        "city": "תל אביב יפו",
        "street": "הירקון",
        "homeNumber": "86",
        "coordinates": [
          34.767445,
          32.07747
        ]
      }
    },
    {
      "name": "קראון פלזה תל-אביב",
      "businessType": "lodging",
      "phone": "03-520-1111",
      "website": "http://www.h-i.co.il/hotels/crowne-plaza-tel-aviv-beach/",
      "address": {
        "city": "תל אביב יפו",
        "street": "",
        "homeNumber": "",
        "coordinates": [
          34.76891,
          32.083836
        ]
      }
    },
    {
      "name": "מנעולן רעננה",
      "businessType": "locksmith",
      "phone": "055-228-8191",
      "website": "",
      "address": {
        "city": "רעננה",
        "street": "",
        "homeNumber": "",
        "coordinates": [
          34.871326,
          32.18478
        ]
      }
    },
    {
      "name": "בנק אגוד",
      "businessType": "bank",
      "phone": "1599-599070",
      "website": "http://www.unionbank.co.il/536-1124-he/UnionBank.aspx#branches_details",
      "address": {
        "city": "פתח תקווה",
        "street": "ההסתדרות",
        "homeNumber": "26",
        "coordinates": [
          34.886555,
          32.08603
        ]
      }
    },
    {
      "name": "גבעת אנדרומדה (ניהול) בע\"מ",
      "businessType": "lodging",
      "phone": "03-683-8448",
      "website": "http://www.andromeda.co.il/",
      "address": {
        "city": "",
        "street": "לואי פסטר",
        "homeNumber": "3",
        "coordinates": [
          34.75269,
          32.052258
        ]
      }
    },
    {
      "name": "Shopinka",
      "businessType": "clothing_store",
      "phone": "03-681-5758",
      "website": "http://www.shopinka.com/",
      "address": {
        "city": "תל אביב יפו",
        "street": "דרך קיבוץ גלויות",
        "homeNumber": "73",
        "coordinates": [
          34.860806,
          32.171284
        ]
      }
    },
    {
      "name": "Sal Mia Suites and Spa",
      "businessType": "establishment",
      "phone": "09-951-6271",
      "website": "",
      "address": {
        "city": "",
        "street": "",
        "homeNumber": "",
        "coordinates": [
          34.81204,
          32.16915
        ]
      }
    },
    {
      "name": "מועדון חשפנות בייבי דולס",
      "businessType": "night_club",
      "phone": "03-683-7777",
      "website": "http://www.babydolls.co.il/",
      "address": {
        "city": "תל אביב יפו",
        "street": "אברבנאל",
        "homeNumber": "86",
        "coordinates": [
          34.766388,
          32.05425
        ]
      }
    },
    {
      "name": "Jerusalem Gate Hotel Jerusalem",
      "businessType": "establishment",
      "phone": "02-500-8500",
      "website": "http://www.jerusalemgatehotel.com/",
      "address": {
        "city": "ירושלים",
        "street": "ירמיהו",
        "homeNumber": "43",
        "coordinates": [
          35.200916,
          31.790342
        ]
      }
    },
    {
      "name": "מנעולן | ® מרכז הביטחון",
      "businessType": "locksmith",
      "phone": "072-274-6800",
      "website": "http://www.locksmith-center.co.il/",
      "address": {
        "city": "תל אביב יפו",
        "street": "דרך מנחם בגין",
        "homeNumber": "132",
        "coordinates": [
          34.791103,
          32.07435
        ]
      }
    },
    {
      "name": "Holiday Raanana Israel",
      "businessType": "establishment",
      "phone": "054-768-8083",
      "website": "http://www.holiday-raanana.com/",
      "address": {
        "city": "רעננה",
        "street": "אחוזה",
        "homeNumber": "88",
        "coordinates": [
          34.87812,
          32.179855
        ]
      }
    },
    {
      "name": "Overstay-TLV",
      "businessType": "lodging",
      "phone": "057-421-0200",
      "website": "http://www.overstay.co.il",
      "address": {
        "city": "תל אביב יפו",
        "street": "",
        "homeNumber": "",
        "coordinates": [
          34.765526,
          32.048252
        ]
      }
    },
    {
      "name": "Dizengoff Suites Hotel",
      "businessType": "establishment",
      "phone": "03-523-4363",
      "website": "http://dizengoffsuites.co.il/",
      "address": {
        "city": "",
        "street": "גורדון",
        "homeNumber": "39",
        "coordinates": [
          34.773617,
          32.08191
        ]
      }
    },
    {
      "name": "מלון רמת רחל",
      "businessType": "lodging",
      "phone": "02-670-2555",
      "website": "http://www.ramatrachel.co.il/",
      "address": {
        "city": "Jeruzalem",
        "street": "",
        "homeNumber": "",
        "coordinates": [
          35.218273,
          31.737894
        ]
      }
    },
    {
      "name": "גם קפה",
      "businessType": "cafe",
      "phone": "09-772-2778",
      "website": "",
      "address": {
        "city": "",
        "street": "",
        "homeNumber": "",
        "coordinates": [
          34.847443,
          32.18715
        ]
      }
    },
    {
      "name": "קניון מלחה",
      "businessType": "store",
      "phone": "02-679-1333",
      "website": "http://www.azrieli.com/Mall.aspx?CenterID=3",
      "address": {
        "city": "ירושלים",
        "street": "דרך אגודת ספורט בית\"ר",
        "homeNumber": "",
        "coordinates": [
          35.187317,
          31.7516
        ]
      }
    },
    {
      "name": "Daniel Herzelia Hotel",
      "businessType": "lodging",
      "phone": "09-952-8282",
      "website": "http://english.tamareshotels.co.il/daniel-herzliya-hotel.html",
      "address": {
        "city": "",
        "street": "רמת ים",
        "homeNumber": "60",
        "coordinates": [
          34.800922,
          32.1715
        ]
      }
    },
    {
      "name": "Millos Fashion House",
      "businessType": "clothing_store",
      "phone": "03-527-9183",
      "website": "http://www.millos.co.il/",
      "address": {
        "city": "תל אביב יפו",
        "street": "אבן גבירול",
        "homeNumber": "71",
        "coordinates": [
          34.7811,
          32.082794
        ]
      }
    },
    {
      "name": "Hotel Arcadia",
      "businessType": "lodging",
      "phone": "02-622-1998",
      "website": "",
      "address": {
        "city": "ירושלים",
        "street": "יפו",
        "homeNumber": "57",
        "coordinates": [
          35.216873,
          31.783688
        ]
      }
    },
    {
      "name": "גלידריה סיציליאנית",
      "businessType": "store",
      "phone": "09-957-8224",
      "website": "http://www.glideria.co.il/",
      "address": {
        "city": "הרצליה",
        "street": "",
        "homeNumber": "",
        "coordinates": [
          34.80838,
          32.158928
        ]
      }
    },
    {
      "name": "המנעולן הזריז של רמת אביב",
      "businessType": "locksmith",
      "phone": "072-274-6801",
      "website": "",
      "address": {
        "city": "תל אביב יפו",
        "street": "איינשטיין",
        "homeNumber": "40",
        "coordinates": [
          34.79489,
          32.11264
        ]
      }
    },
    {
      "name": "רביבה וסיליה בע\"מ",
      "businessType": "cafe",
      "phone": "03-540-0179",
      "website": "http://www.revivaandcelia.co.il/",
      "address": {
        "city": "רמת השרון",
        "street": "המייסדים",
        "homeNumber": "1",
        "coordinates": [
          34.837036,
          32.13669
        ]
      }
    },
    {
      "name": "פויקה",
      "businessType": "restaurant",
      "phone": "03-681-4622",
      "website": "http://www.poyke.com/",
      "address": {
        "city": "רמת השרון",
        "street": "תרזה",
        "homeNumber": "14",
        "coordinates": [
          34.840527,
          32.137806
        ]
      }
    },
    {
      "name": "Hashimi Hotel",
      "businessType": "lodging",
      "phone": "054-547-4189",
      "website": "",
      "address": {
        "city": "ירושלים",
        "street": "",
        "homeNumber": "",
        "coordinates": [
          35.231083,
          31.779484
        ]
      }
    },
    {
      "name": "בנק אגוד",
      "businessType": "bank",
      "phone": "1599-599147",
      "website": "http://www.unionbank.co.il/526-3106-he/UnionBank.aspx#branches_details",
      "address": {
        "city": "בית שמש",
        "street": "הנשיא",
        "homeNumber": "2",
        "coordinates": [
          34.985817,
          31.748575
        ]
      }
    },
    {
      "name": "קפה גרג - קניון ארנה",
      "businessType": "establishment",
      "phone": "09-951-0793",
      "website": "",
      "address": {
        "city": "הרצליה",
        "street": "השונית",
        "homeNumber": "2",
        "coordinates": [
          34.79764,
          32.163746
        ]
      }
    },
    {
      "name": "בנק אגוד",
      "businessType": "atm",
      "phone": "1599-566095",
      "website": "http://www.unionbank.co.il/535-3114-he/UnionBank.aspx#branches_details",
      "address": {
        "city": "נתניה",
        "street": "שדרות גיבורי ישראל",
        "homeNumber": "24",
        "coordinates": [
          34.86065,
          32.280205
        ]
      }
    },
    {
      "name": "hotel marom haifa",
      "businessType": "lodging",
      "phone": "04-825-4355",
      "website": "http://marom.hotelasp.com/",
      "address": {
        "city": "חיפה",
        "street": "פלמ\"ח",
        "homeNumber": "51",
        "coordinates": [
          34.999336,
          32.788788
        ]
      }
    },
    {
      "name": "Banks",
      "businessType": "establishment",
      "phone": "03-562-5544",
      "website": "",
      "address": {
        "city": "תל אביב יפו",
        "street": "לינקולן",
        "homeNumber": "13",
        "coordinates": [
          34.782223,
          32.066612
        ]
      }
    },
    {
      "name": "mylock",
      "businessType": "locksmith",
      "phone": "052-400-6566",
      "website": "http://www.mylock.co.il/",
      "address": {
        "city": "תל אביב יפו",
        "street": "משה סנה",
        "homeNumber": "16",
        "coordinates": [
          34.82552,
          32.120564
        ]
      }
    },
    {
      "name": "אלפי מפתחות",
      "businessType": "locksmith",
      "phone": "09-957-1396",
      "website": "",
      "address": {
        "city": "הרצליה",
        "street": "שדרות בן גוריון",
        "homeNumber": "18",
        "coordinates": [
          34.84242,
          32.164017
        ]
      }
    },
    {
      "name": "גרנד קורט",
      "businessType": "lodging",
      "phone": "02-591-7777",
      "website": "http://www.grandhotels.co.il/%D7%9E%D7%9C%D7%95%D7%9F-%D7%92%D7%A8%D7%A0%D7%93-%D7%A7%D7%95%D7%A8%D7%98-%D7%99%D7%A8%D7%95%D7%A9%D7%9C%D7%99%D7%9D/%D7%9E%D7%9C%D7%95%D7%A0%D7%95%D7%AA-%D7%91%D7%99%D7%A8%D7%95%D7%A9%D7%9C%D7%99%D7%9D",
      "address": {
        "city": "ירושלים",
        "street": "",
        "homeNumber": "",
        "coordinates": [
          35.227734,
          31.78901
        ]
      }
    },
    {
      "name": "סבסטיאן",
      "businessType": "cafe",
      "phone": "09-951-3939",
      "website": "http://noirgroup.co.il/sebastian",
      "address": {
        "city": "הרצליה",
        "street": "משכית",
        "homeNumber": "33",
        "coordinates": [
          34.810005,
          32.162434
        ]
      }
    },
    {
      "name": "TLV VIP Nightlife",
      "businessType": "night_club",
      "phone": "052-779-2226",
      "website": "http://www.tlv-vip.com/",
      "address": {
        "city": "תל אביב יפו",
        "street": "שלום עליכם",
        "homeNumber": "54",
        "coordinates": [
          34.770866,
          32.07852
        ]
      }
    },
    {
      "name": "מכבי הוד השרון",
      "businessType": "pharmacy",
      "phone": "03-547-0079",
      "website": "",
      "address": {
        "city": "הוד השרון",
        "street": "",
        "homeNumber": "",
        "coordinates": [
          34.890987,
          32.15585
        ]
      }
    },
    {
      "name": "Paola Shoes",
      "businessType": "shoe_store",
      "phone": "03-919-3383",
      "website": "http://www.paola.co.il/",
      "address": {
        "city": "פתח תקווה",
        "street": "דרך זאב ז'בוטינסקי",
        "homeNumber": "72",
        "coordinates": [
          34.86605,
          32.09361
        ]
      }
    },
    {
      "name": "מנעולן בכפר סבא",
      "businessType": "locksmith",
      "phone": "050-725-5580",
      "website": "",
      "address": {
        "city": "כפר סבא",
        "street": "ויצמן",
        "homeNumber": "30",
        "coordinates": [
          34.899708,
          32.17715
        ]
      }
    },
    {
      "name": "Sigal Shoval",
      "businessType": "establishment",
      "phone": "076-540-1678",
      "website": "http://www.sigalshoval.co.il/",
      "address": {
        "city": "רעננה",
        "street": "רמב\"ם",
        "homeNumber": "5",
        "coordinates": [
          34.87713,
          32.1794
        ]
      }
    },
    {
      "name": "בורוכוב 88",
      "businessType": "restaurant",
      "phone": "09-744-2203",
      "website": "http://www.b88.co.il/",
      "address": {
        "city": "רעננה",
        "street": "בורוכוב",
        "homeNumber": "88",
        "coordinates": [
          34.87839,
          32.190636
        ]
      }
    },
    {
      "name": "קפה הלל - רמת אביב",
      "businessType": "establishment",
      "phone": "03-641-1025",
      "website": "",
      "address": {
        "city": "תל אביב יפו",
        "street": "אבא אחימאיר",
        "homeNumber": "15",
        "coordinates": [
          34.801434,
          32.124767
        ]
      }
    },
    {
      "name": "ארומה",
      "businessType": "cafe",
      "phone": "03-549-0033",
      "website": "http://www.aroma.co.il/",
      "address": {
        "city": "רמת השרון",
        "street": "סוקולוב",
        "homeNumber": "33",
        "coordinates": [
          34.836575,
          32.14165
        ]
      }
    },
    {
      "name": "מעלה החמישה",
      "businessType": "lodging",
      "phone": "054-700-0736",
      "website": "http://www.telavivrentalapartments.com/",
      "address": {
        "city": "",
        "street": "דיזנגוף",
        "homeNumber": "283",
        "coordinates": [
          34.77616,
          32.095623
        ]
      }
    },
    {
      "name": "ביג טום אחזקות בע\"מ",
      "businessType": "clothing_store",
      "phone": "09-885-2880",
      "website": "",
      "address": {
        "city": "הרצליה",
        "street": "שדרות שבעת הכוכבים",
        "homeNumber": "8",
        "coordinates": [
          34.824123,
          32.16523
        ]
      }
    },
    {
      "name": "s-wear (היינס)",
      "businessType": "clothing_store",
      "phone": "074-755-8815",
      "website": "http://www.s-wear.com/",
      "address": {
        "city": "רעננה",
        "street": "ז'בוטינסקי",
        "homeNumber": "3",
        "coordinates": [
          34.874256,
          32.17973
        ]
      }
    },
    {
      "name": "Shefayim Hotel",
      "businessType": "lodging",
      "phone": "09-959-5595",
      "website": "http://www.shefhotel.co.il/",
      "address": {
        "city": "תל אביב יפו",
        "street": "",
        "homeNumber": "",
        "coordinates": [
          34.82208,
          32.21577
        ]
      }
    },
    {
      "name": "s-wear (היינס)",
      "businessType": "clothing_store",
      "phone": "074-755-8814",
      "website": "http://www.s-wear.com/",
      "address": {
        "city": "רמת השרון",
        "street": "סוקולוב",
        "homeNumber": "55",
        "coordinates": [
          34.83791,
          32.1442
        ]
      }
    },
    {
      "name": "TLV 88",
      "businessType": "lodging",
      "phone": "03-620-4676",
      "website": "http://www.tlv88.co.il/",
      "address": {
        "city": "תל אביב",
        "street": "",
        "homeNumber": "",
        "coordinates": [
          34.76766,
          32.077866
        ]
      }
    },
    {
      "name": "קפנטו - ארנה - הרצליה",
      "businessType": "cafe",
      "phone": "09-950-5384",
      "website": "",
      "address": {
        "city": "",
        "street": "",
        "homeNumber": "",
        "coordinates": [
          34.796917,
          32.16306
        ]
      }
    },
    {
      "name": "ONOT",
      "businessType": "clothing_store",
      "phone": "09-956-9000",
      "website": "http://www.onot.co.il/",
      "address": {
        "city": "הרצליה",
        "street": "שדרות שבעת הכוכבים",
        "homeNumber": "8",
        "coordinates": [
          34.824165,
          32.165188
        ]
      }
    },
    {
      "name": "OWEAR",
      "businessType": "clothing_store",
      "phone": "052-668-9492",
      "website": "http://www.owear.co.il/",
      "address": {
        "city": "רעננה",
        "street": "עטרות",
        "homeNumber": "3",
        "coordinates": [
          34.859295,
          32.18765
        ]
      }
    },
    {
      "name": "צ'אפ צ'ופ נעלי ילדים",
      "businessType": "shoe_store",
      "phone": "03-726-0026",
      "website": "http://www.wix.com/chapchup/chap1",
      "address": {
        "city": "אור יהודה",
        "street": "חיים ברלב",
        "homeNumber": "10",
        "coordinates": [
          34.856827,
          32.03108
        ]
      }
    },
    {
      "name": "מנעולן תל אביב - Dr.Locksmith",
      "businessType": "locksmith",
      "phone": "050-567-3322",
      "website": "http://www.drlocksmith.co.il/",
      "address": {
        "city": "אזור",
        "street": "המצודה",
        "homeNumber": "10",
        "coordinates": [
          34.79756,
          32.029827
        ]
      }
    },
    {
      "name": "Arlozorov Apartments",
      "businessType": "establishment",
      "phone": "03-522-1064",
      "website": "",
      "address": {
        "city": "",
        "street": "זלטופולסקי",
        "homeNumber": "12",
        "coordinates": [
          34.77252,
          32.088467
        ]
      }
    },
    {
      "name": "בנק אגוד",
      "businessType": "bank",
      "phone": "1599-599152",
      "website": "http://www.unionbank.co.il/528-3347-he/UnionBank.aspx#branches_details",
      "address": {
        "city": "הוד השרון",
        "street": "סוקולוב",
        "homeNumber": "15",
        "coordinates": [
          34.90212,
          32.163788
        ]
      }
    },
    {
      "name": "הוט קופי",
      "businessType": "cafe",
      "phone": "03-549-1516",
      "website": "",
      "address": {
        "city": "",
        "street": "",
        "homeNumber": "",
        "coordinates": [
          34.846046,
          32.13466
        ]
      }
    },
    {
      "name": "אמריקן קולוני",
      "businessType": "lodging",
      "phone": "02-627-9777",
      "website": "http://www.americancolony.co.il/",
      "address": {
        "city": "ירושלים",
        "street": "Louis Vincent St.",
        "homeNumber": "1",
        "coordinates": [
          35.229702,
          31.789425
        ]
      }
    },
    {
      "name": "MASH Central",
      "businessType": "establishment",
      "phone": "077-799-0994",
      "website": "http://www.mash.co.il/",
      "address": {
        "city": "",
        "street": "אלנבי",
        "homeNumber": "38",
        "coordinates": [
          34.768715,
          32.07264
        ]
      }
    },
    {
      "name": "Josef Shoes",
      "businessType": "shoe_store",
      "phone": "08-865-7223",
      "website": "http://www.josefshoes.co.il/",
      "address": {
        "city": "אשדוד",
        "street": "",
        "homeNumber": "",
        "coordinates": [
          34.64828,
          31.797169
        ]
      }
    },
    {
      "name": "דיש'ס",
      "businessType": "cafe",
      "phone": "09-741-2579",
      "website": "",
      "address": {
        "city": "רעננה",
        "street": "אוסטרובסקי",
        "homeNumber": "39",
        "coordinates": [
          34.87106,
          32.17791
        ]
      }
    },
    {
      "name": "דן אכדיה הרצליה",
      "businessType": "lodging",
      "phone": "09-959-7070",
      "website": "http://www.danhotels.co.il/HerzliyaHotels/DanAccadiaHerzliyaHotel/index.htm",
      "address": {
        "city": "הרצליה",
        "street": "",
        "homeNumber": "",
        "coordinates": [
          34.799828,
          32.167057
        ]
      }
    },
    {
      "name": "אמפיריק",
      "businessType": "establishment",
      "phone": "03-624-5080",
      "website": "http://www.empeeric.com/",
      "address": {
        "city": "תל אביב יפו",
        "street": "מונטיפיורי",
        "homeNumber": "41",
        "coordinates": [
          34.783833,
          32.070377
        ]
      }
    },
    {
      "name": "קפה ברנש",
      "businessType": "cafe",
      "phone": "03-620-3747",
      "website": "",
      "address": {
        "city": "",
        "street": "בוגרשוב",
        "homeNumber": "87",
        "coordinates": [
          34.774845,
          32.074223
        ]
      }
    },
    {
      "name": "קפנטו",
      "businessType": "cafe",
      "phone": "09-744-4614",
      "website": "http://www.cafeneto.co.il/",
      "address": {
        "city": "הוד השרון",
        "street": "",
        "homeNumber": "",
        "coordinates": [
          34.894093,
          32.159298
        ]
      }
    },
    {
      "name": "Center Chic Hotel Tel Aviv",
      "businessType": "lodging",
      "phone": "03-542-5555",
      "website": "http://www.atlas.co.il/",
      "address": {
        "city": "תל אביב יפו",
        "street": "זמנהוף",
        "homeNumber": "2",
        "coordinates": [
          34.774567,
          32.077587
        ]
      }
    },
    {
      "name": "המעבדה",
      "businessType": "establishment",
      "phone": "03-744-0450",
      "website": "http://www.facebook.com/pages/%D7%94%D7%9E%D7%A2%D7%91%D7%93%D7%94-Fashion-Brand-Boutique/117831781627684",
      "address": {
        "city": "תל אביב יפו",
        "street": "אבא אחימאיר",
        "homeNumber": "29",
        "coordinates": [
          34.810684,
          32.09127
        ]
      }
    },
    {
      "name": "רנואר",
      "businessType": "clothing_store",
      "phone": "052-470-5615",
      "website": "http://www.renuar.co.il/",
      "address": {
        "city": "הרצליה",
        "street": "שדרות שבעת הכוכבים",
        "homeNumber": "8",
        "coordinates": [
          34.824127,
          32.16494
        ]
      }
    }
  ]
}